[
    {
        "name": "Battle of ",
        "article": "",
        "year": 1,
        "place": "",
        "country": "",
        "war": "",
        "coords": { "lat": 0, "lng": 0 }
    },
    {
        "name": "Battle on the Marchfeld",
        "article": "https://en.wikipedia.org/wiki/Battle_on_the_Marchfeld",
        "year": 1278,
        "place": "Jedenspeigen",
        "country": "Austria",
        "war": "",
        "coords": { "lat": 48.481514, "lng": 16.877317 }
    },
    {
        "name": "Siege of Vienna",
        "article": "https://en.wikipedia.org/wiki/Siege_of_Vienna_(1529)",
        "year": 1529,
        "place": "Vienna",
        "country": "Austria",
        "war": "Ottoman Wars",
        "coords": { "lat": 48.2083, "lng": 16.3731 }
    },
    {
        "name": "Battle of Vienna",
        "article": "https://en.wikipedia.org/wiki/Battle_of_Vienna",
        "year": 1683,
        "place": "Vienna",
        "country": "Austria",
        "war": "Great Turkish War",
        "coords": { "lat": 48.2083, "lng": 16.3731 }
    },
    {
        "name": "Battle of Amstetten",
        "article": "https://en.wikipedia.org/wiki/Battle_of_Amstetten",
        "year": 1805,
        "place": "Amstetten",
        "country": "Austria",
        "war": "Napoleonic Wars",
        "coords": { "lat": 48.1167, "lng": 14.8667 }
    },
    {
        "name": "Battle of Wagram",
        "article": "https://en.wikipedia.org/wiki/Battle_of_Wagram",
        "year": 1809,
        "place": "Wagram",
        "country": "Austria",
        "war": "Napoleonic Wars",
        "coords": { "lat": 48.299444, "lng": 16.564444 }
    },
    {
        "name": "Battle of Ebelsberg",
        "article": "https://en.wikipedia.org/wiki/Battle_of_Ebersberg",
        "year": 1809,
        "place": "near Linz",
        "country": "Austria",
        "war": "Napoleonic Wars",
        "coords": { "lat": 48.303056, "lng": 14.290556 }
    },
    {
        "name": "Battle of Kletsk",
        "article": "https://en.wikipedia.org/wiki/Battle_of_Kletsk",
        "year": 1506,
        "place": "Kletsk",
        "country": "Belarus",
        "war": "Muscovite–Lithuanian Wars",
        "coords": { "lat": 53.018, "lng": 26.703 }
    },
    {
        "name": "Battle of Orsha",
        "article": "https://en.wikipedia.org/wiki/Battle_of_Orsha",
        "year": 1514,
        "place": "Orsha",
        "country": "Belarus",
        "war": "Muscovite–Lithuanian Wars",
        "coords": { "lat": 54.5, "lng": 30.383333 }
    },
    {
        "name": "Battle of Ula",
        "article": "https://en.wikipedia.org/wiki/Battle_of_Ula",
        "year": 1564,
        "place": "near Chashniki",
        "country": "Belarus",
        "war": "Livonian War",
        "coords": { "lat": 54.85, "lng": 29.15 }
    },
    {
        "name": "Battle of Shepeleviche",
        "article": "https://en.wikipedia.org/wiki/Battle_of_Shepeleviche",
        "year": 1654,
        "place": "Shepelevichi",
        "country": "Belarus",
        "war": "Russo-Polish War",
        "coords": { "lat": 54.129722, "lng": 29.56 }
    },
    {
        "name": "Battle of Shklow",
        "article": "https://en.wikipedia.org/wiki/Battle_of_Shklow_(1654)",
        "year": 1654,
        "place": "Shkloŭ",
        "country": "Belarus",
        "war": "Russo-Polish War",
        "coords": { "lat": 54.2056434, "lng": 30.2552188 }
    },
    {
        "name": "Battle of Myadel",
        "article": "https://en.wikipedia.org/wiki/Battle_of_Myadel",
        "year": 1659,
        "place": "Myadzyel",
        "country": "Belarus",
        "war": "Russo-Polish War",
        "coords": { "lat": 54.866667, "lng": 26.933333 }
    },
    {
        "name": "Battle of Polonka",
        "article": "https://en.wikipedia.org/wiki/Battle_of_Polonka",
        "year": 1660,
        "place": "Polonka",
        "country": "Belarus",
        "war": "Russo-Polish War",
        "coords": { "lat": 53.1437275, "lng": 25.693028 }
    },
    {
        "name": "Battle of Basya",
        "article": "https://en.wikipedia.org/wiki/Battle_of_Basya",
        "year": 1660,
        "place": "Basya River",
        "country": "Belarus",
        "war": "Russo-Polish War",
        "coords": { "lat": 54.0651741, "lng": 30.744273 }
    },
    {
        "name": "Battle of Kushliki",
        "article": "https://en.wikipedia.org/wiki/Battle_of_Kushliki",
        "year": 1661,
        "place": "Kushliki",
        "country": "Belarus",
        "war": "Russo-Polish War",
        "coords": { "lat": 55.563756, "lng": 28.397426 }
    },
    {
        "name": "Battle of Lesnaya",
        "article": "https://en.wikipedia.org/wiki/Battle_of_Lesnaya",
        "year": 1708,
        "place": "Lesnaya",
        "country": "Belarus",
        "war": "",
        "coords": { "lat": 53.542, "lng": 30.915 }
    },
    {
        "name": "Battle of Mir",
        "article": "https://en.wikipedia.org/wiki/Battle_of_Mir_(1792)",
        "year": 1792,
        "place": "Mir",
        "country": "Belarus",
        "war": "Polish–Russian War of 1792",
        "coords": { "lat": 53.45, "lng": 26.4667 }
    },
    {
        "name": "Battle of Saltanovka",
        "article": "https://en.wikipedia.org/wiki/Battle_of_Saltanovka",
        "year": 1812,
        "place": "near Mogilev",
        "country": "Belarus",
        "war": "Napoleonic Wars",
        "coords": { "lat": 53.9, "lng": 30.3333 }
    },
    {
        "name": "First Battle of Polotsk",
        "article": "https://en.wikipedia.org/wiki/First_Battle_of_Polotsk",
        "year": 1812,
        "place": "Polotsk",
        "country": "Belarus",
        "war": "Napoleonic Wars",
        "coords": { "lat": 55.483333, "lng": 28.8 }
    },
    {
        "name": "Battle of Bereza Kartuska",
        "article": "https://en.wikipedia.org/wiki/Battle_of_Bereza_Kartuska",
        "year": 1919,
        "place": "near Bereza Kartuska",
        "country": "Belarus",
        "war": "Polish–Soviet War",
        "coords": { "lat": 52.55, "lng": 24.966667 }
    },
    {
        "name": "Battle of Leuven",
        "article": "https://en.wikipedia.org/wiki/Battle_of_Leuven_(891)",
        "year": 891,
        "place": "Leuven",
        "country": "Belgium",
        "war": "",
        "coords": { "lat": 50.883333, "lng": 4.7 }
    },
    {
        "name": "Battle of Steppes",
        "article": "https://en.wikipedia.org/wiki/Battle_of_Steppes",
        "year": 1213,
        "place": "Montenaken",
        "country": "Belgium",
        "war": "",
        "coords": { "lat": 50.7492, "lng": 5.1328 }
    },
    {
        "name": "Battle of Damme",
        "article": "https://en.wikipedia.org/wiki/Battle_of_Damme",
        "year": 1213,
        "place": "Damme",
        "country": "Belgium",
        "war": "Anglo-French War",
        "coords": { "lat": 51.333611, "lng": 3.381944 }
    },
    {
        "name": "Battle of Bouvines",
        "article": "https://en.wikipedia.org/wiki/Battle_of_Bouvines",
        "year": 1214,
        "place": "Bouvines",
        "country": "Belgium",
        "war": "Anglo-French War",
        "coords": { "lat": 50.583333, "lng": 3.225 }
    },
    {
        "name": "Battle of Furnes",
        "article": "https://en.wikipedia.org/wiki/Battle_of_Furnes",
        "year": 1297,
        "place": "Bulskamp",
        "country": "Belgium",
        "war": "Franco-Flemish War",
        "coords": { "lat": 51.0692, "lng": 2.6679 }
    },
    {
        "name": "Battle of the Golden Spurs",
        "article": "https://en.wikipedia.org/wiki/Battle_of_the_Golden_Spurs",
        "year": 1302,
        "place": "Kortrijk",
        "country": "Belgium",
        "war": "Franco-Flemish War",
        "coords": { "lat": 50.829, "lng": 3.276 }
    },
    {
        "name": "Battle of Roosebeke",
        "article": "https://en.wikipedia.org/wiki/Battle_of_Roosebeke",
        "year": 1382,
        "place": "Roosebeke (today Westrozebeke)",
        "country": "Belgium",
        "war": "Hundred Years' War",
        "coords": { "lat": 50.790833, "lng": 4.901667 }
    },
    {
        "name": "Battle of Othée",
        "article": "https://en.wikipedia.org/wiki/Battle_of_Othée",
        "year": 1408,
        "place": "Othée",
        "country": "Belgium",
        "war": "",
        "coords": { "lat": 50.7177, "lng": 5.4646 }
    },
    {
        "name": "Battle of Gavere",
        "article": "https://en.wikipedia.org/wiki/Battle_of_Gavere",
        "year": 1453,
        "place": "Semmerzake",
        "country": "Belgium",
        "war": "Revolt of Ghent",
        "coords": { "lat": 50.9333, "lng": 3.65 }
    },
    {
        "name": "Battle of Brustem",
        "article": "https://en.wikipedia.org/wiki/Battle_of_Brustem",
        "year": 1467,
        "place": "Brustem",
        "country": "Belgium",
        "war": "Second Liège War",
        "coords": { "lat": 50.8017, "lng": 5.2175 }
    },
    {
        "name": "Battle of Oosterweel",
        "article": "https://en.wikipedia.org/wiki/Battle_of_Oosterweel",
        "year": 1567,
        "place": "Oosterweel",
        "country": "Belgium",
        "war": "Eighty Years' War",
        "coords": { "lat": 51.2436, "lng": 4.3853 }
    },
    {
        "name": "Battle of Gembloux",
        "article": "https://en.wikipedia.org/wiki/Battle_of_Gembloux_(1578)",
        "year": 1578,
        "place": "Gembloux",
        "country": "Belgium",
        "war": "Eighty Years' War",
        "coords": { "lat": 50.566667, "lng": 4.683333 }
    },
    {
        "name": "Battle of Turnhout",
        "article": "https://en.wikipedia.org/wiki/Battle_of_Turnhout_(1597)",
        "year": 1597,
        "place": "near Turnhout",
        "country": "Belgium",
        "war": "Eighty Years' War",
        "coords": { "lat": 51.316667, "lng": 4.95 }
    },
    {
        "name": "Battle of Nieuwpoort",
        "article": "https://en.wikipedia.org/wiki/Battle_of_Nieuwpoort",
        "year": 1600,
        "place": "Nieuwpoort",
        "country": "Belgium",
        "war": "Eighty Years' War",
        "coords": { "lat": 51.155833, "lng": 2.738333 }
    },
    {
        "name": "Battle of Seneffe",
        "article": "https://en.wikipedia.org/wiki/Battle_of_Seneffe",
        "year": 1674,
        "place": "near Seneffe, Hainaut",
        "country": "Belgium",
        "war": "Franco-Dutch War",
        "coords": { "lat": 50.516667, "lng": 4.25 }
    },
    {
        "name": "Battle of Saint-Denis",
        "article": "https://en.wikipedia.org/wiki/Battle_of_Saint-Denis_(1678)",
        "year": 1678,
        "place": "Saint-Denis, near Mons",
        "country": "Belgium",
        "war": "Franco-Dutch War",
        "coords": { "lat": 50.4833, "lng": 4.0167 }
    },
    {
        "name": "Battle of Walcourt",
        "article": "https://en.wikipedia.org/wiki/Battle_of_Walcourt",
        "year": 1689,
        "place": "Walcourt",
        "country": "Belgium",
        "war": "War of the Grand Alliance",
        "coords": { "lat": 50.25, "lng": 4.416667 }
    },
    {
        "name": "Battle of Fleurus",
        "article": "https://en.wikipedia.org/wiki/Battle_of_Fleurus_(1690)",
        "year": 1690,
        "place": "Fleurus",
        "country": "Belgium",
        "war": "War of the Grand Alliance",
        "coords": { "lat": 50.4833, "lng": 4.55 }
    },
    {
        "name": "Battle of Leuze",
        "article": "https://en.wikipedia.org/wiki/Battle_of_Leuze",
        "year": 1691,
        "place": "Leuze",
        "country": "Belgium",
        "war": "War of the Grand Alliance",
        "coords": { "lat": 50.5966, "lng": 3.617 }
    },
    {
        "name": "Battle of Steenkerque",
        "article": "https://en.wikipedia.org/wiki/Battle_of_Steenkerque",
        "year": 1692,
        "place": "Steenkerque",
        "country": "Belgium",
        "war": "War of the Grand Alliance",
        "coords": { "lat": 50.6333, "lng": 4.0667 }
    },
    {
        "name": "Battle of Landen",
        "article": "https://en.wikipedia.org/wiki/Battle_of_Landen",
        "year": 1693,
        "place": "Neerwinden",
        "country": "Belgium",
        "war": "War of the Grand Alliance",
        "coords": { "lat": 50.7725, "lng": 5.035 }
    },
    {
        "name": "Battle of Ekeren",
        "article": "https://en.wikipedia.org/wiki/Battle_of_Ekeren",
        "year": 1703,
        "place": "Ekeren, Antwerp",
        "country": "Belgium",
        "war": "War of the Spanish Succession",
        "coords": { "lat": 51.270556, "lng": 4.4075 }
    },
    {
        "name": "Battle of Elixheim",
        "article": "https://en.wikipedia.org/wiki/Battle_of_Elixheim",
        "year": 1705,
        "place": "Elixheim",
        "country": "Belgium",
        "war": "War of the Spanish Succession",
        "coords": { "lat": 50.7842, "lng": 5.0097 }
    },
    {
        "name": "Battle of Ramillies",
        "article": "https://en.wikipedia.org/wiki/Battle_of_Ramillies",
        "year": 1706,
        "place": "Ramillies",
        "country": "Belgium",
        "war": "War of the Spanish Succession",
        "coords": { "lat": 50.638611, "lng": 4.912778 }
    },
    {
        "name": "Battle of Oudenarde",
        "article": "https://en.wikipedia.org/wiki/Battle_of_Oudenarde",
        "year": 1708,
        "place": "Oudenarde",
        "country": "Belgium",
        "war": "War of the Spanish Succession",
        "coords": { "lat": 50.85, "lng": 3.433333 }
    },
    {
        "name": "Battle of Fontenoy",
        "article": "https://en.wikipedia.org/wiki/Battle_of_Fontenoy",
        "year": 1745,
        "place": "Antoing",
        "country": "Belgium",
        "war": "War of the Austrian Succession",
        "coords": { "lat": 50.5694, "lng": 3.475 }
    },
    {
        "name": "Battle of Rocoux",
        "article": "https://en.wikipedia.org/wiki/Battle_of_Rocoux",
        "year": 1746,
        "place": "Rocourt, Liège",
        "country": "Belgium",
        "war": "War of the Austrian Succession",
        "coords": { "lat": 50.675833, "lng": 5.546111 }
    },
    {
        "name": "Battle of Lauffeld",
        "article": "https://en.wikipedia.org/wiki/Battle_of_Lauffeld",
        "year": 1747,
        "place": "Lafelt",
        "country": "Belgium",
        "war": "War of the Austrian Succession",
        "coords": { "lat": 50.828611, "lng": 5.618333 }
    },
    {
        "name": "Battle of Turnhout",
        "article": "https://en.wikipedia.org/wiki/Battle_of_Turnhout_(1789)",
        "year": 1789,
        "place": "Turnhout",
        "country": "Belgium",
        "war": "Brabant Revolution",
        "coords": { "lat": 51.316667, "lng": 4.95 }
    },
    {
        "name": "Battle of Jemappes",
        "article": "https://en.wikipedia.org/wiki/Battle_of_Jemappes",
        "year": 1792,
        "place": "near Jemappes",
        "country": "Belgium",
        "war": "French Revolutionary Wars",
        "coords": { "lat": 50.4559, "lng": 3.8886 }
    },
    {
        "name": "Battle of Neerwinden",
        "article": "https://en.wikipedia.org/wiki/Battle_of_Neerwinden_(1793)",
        "year": 1793,
        "place": "near Neerwinden",
        "country": "Belgium",
        "war": "French Revolutionary Wars",
        "coords": { "lat": 50.766667, "lng": 5.05 }
    },
    {
        "name": "Battle of Fleurus",
        "article": "https://en.wikipedia.org/wiki/Battle_of_Fleurus_(1794)",
        "year": 1794,
        "place": "Fleurus",
        "country": "Belgium",
        "war": "French Revolutionary Wars",
        "coords": { "lat": 50.483333, "lng": 4.533333 }
    },
    {
        "name": "Battle of Hasselt",
        "article": "https://en.wikipedia.org/wiki/Battle_of_Hasselt",
        "year": 1831,
        "place": "Hasselt",
        "country": "Belgium",
        "war": "The Peasants' War (Boerenkrijg)",
        "coords": { "lat": 50.9167, "lng": 5.3333 }
    },
    {
        "name": "Battle of Quatre Bras",
        "article": "https://en.wikipedia.org/wiki/Battle_of_Quatre_Bras",
        "year": 1815,
        "place": "Quatre Bas",
        "country": "Belgium",
        "war": "Waterloo Campaign",
        "coords": { "lat": 50.571, "lng": 4.453 }
    },
    {
        "name": "Battle of Ligny",
        "article": "https://en.wikipedia.org/wiki/Battle_of_Ligny",
        "year": 1815,
        "place": "Ligny",
        "country": "Belgium",
        "war": "War of the Seventh Coalition",
        "coords": { "lat": 50.52027, "lng": 4.5814 }
    },
    {
        "name": "Battle of Waterloo",
        "article": "https://en.wikipedia.org/wiki/Battle_of_Waterloo",
        "year": 1815,
        "place": "Waterloo",
        "country": "Belgium",
        "war": "Waterloo Campaign",
        "coords": { "lat": 50.68, "lng": 4.412 }
    },
    {
        "name": "Battle of Wavre",
        "article": "https://en.wikipedia.org/wiki/Battle_of_Wavre",
        "year": 1815,
        "place": "Wavre",
        "country": "Belgium",
        "war": "War of the Seventh Coalition",
        "coords": { "lat": 50.716667, "lng": 4.6 }
    },
    {
        "name": "Battle of Liège",
        "article": "https://en.wikipedia.org/wiki/Battle_of_Liège",
        "year": 1914,
        "place": "Liège",
        "country": "Belgium",
        "war": "World War I",
        "coords": { "lat": 50.473889, "lng": 5.572222 }
    },
    {
        "name": "Battle of Mons",
        "article": "https://en.wikipedia.org/wiki/Battle_of_Mons",
        "year": 1914,
        "place": "Mons",
        "country": "Belgium",
        "war": "World War I",
        "coords": { "lat": 50.45, "lng": 3.95 }
    },
    {
        "name": "Battle of Yser",
        "article": "https://en.wikipedia.org/wiki/Battle_of_the_Yser",
        "year": 1914,
        "place": "River Yser",
        "country": "Belgium",
        "war": "World War I",
        "coords": { "lat": 51.152778, "lng": 2.723056 }
    },
    {
        "name": "Battle of Passchendaele",
        "article": "https://en.wikipedia.org/wiki/Battle_of_Passchendaele",
        "year": 1917,
        "place": "Passchendaele",
        "country": "Belgium",
        "war": "World War I",
        "coords": { "lat": 50.900278, "lng": 3.021111 }
    },
    {
        "name": "Battle of the Lys",
        "article": "https://en.wikipedia.org/wiki/Battle_of_the_Lys_(1918)",
        "year": 1918,
        "place": "Flanders",
        "country": "Belgium",
        "war": "World War I",
        "coords": { "lat": 50.705556, "lng": 2.9 }
    },
    {
        "name": "Battle of the Scheldt",
        "article": "https://en.wikipedia.org/wiki/Battle_of_the_Scheldt",
        "year": 1944,
        "place": "Dutch Zeeland",
        "country": "Belgium",
        "war": "World War II",
        "coords": { "lat": 51.416667, "lng": 4.166667 }
    },
    {
        "name": "Battle of Bulge",
        "article": "https://en.wikipedia.org/wiki/Battle_of_the_Bulge",
        "year": 1944,
        "place": "The Ardennes",
        "country": "Belgium",
        "war": "World War II",
        "coords": { "lat": 50.004167, "lng": 5.72 }
    },
    {
        "name": "Battle of Anchialus",
        "article": "https://en.wikipedia.org/wiki/Battle_of_Anchialus_(708)",
        "year": 708,
        "place": "Pomorie (historically Anchialus)",
        "country": "Bulgaria",
        "war": "Byzantine-Bulgarian Wars",
        "coords": { "lat": 42.568333, "lng": 27.616667 }
    },
    {
        "name": "Battle of the Rishki Pass",
        "article": "https://en.wikipedia.org/wiki/Battle_of_the_Rishki_Pass",
        "year": 759,
        "place": "Balkan Mountains",
        "country": "Bulgaria",
        "war": "Byzantine-Bulgarian Wars",
        "coords": { "lat": 42.937222, "lng": 26.939444 }
    },
    {
        "name": "Battle of Anchialus",
        "article": "https://en.wikipedia.org/wiki/Battle_of_Anchialus_(763)",
        "year": 763,
        "place": "Pomorie (historically Anchialus)",
        "country": "Bulgaria",
        "war": "Byzantine-Bulgarian Wars",
        "coords": { "lat": 42.937222, "lng": 26.939444 }
    },
    {
        "name": "Battle of Marcellae",
        "article": "https://en.wikipedia.org/wiki/Battle_of_Marcellae",
        "year": 792,
        "place": "near Karnobat",
        "country": "Bulgaria",
        "war": "Byzantine-Bulgarian Wars",
        "coords": { "lat": 42.6375, "lng": 26.896389 }
    },
    {
        "name": "Battle of Pliska",
        "article": "https://en.wikipedia.org/wiki/Battle_of_Pliska",
        "year": 811,
        "place": "Pliska",
        "country": "Bulgaria",
        "war": "Byzantine–Bulgarian Wars",
        "coords": { "lat": 43.387, "lng": 27.132 }
    },
    {
        "name": "Battle of Versinikia",
        "article": "https://en.wikipedia.org/wiki/Battle_of_Versinikia",
        "year": 813,
        "place": "between Malamirovo, Bulgaria, and Edirne, Turkey",
        "country": "Bulgaria",
        "war": "Byzantine-Bulgarian Wars",
        "coords": { "lat": 41.926127, "lng": 26.590785 }
    },
    {
        "name": "Battle of Achelous",
        "article": "https://en.wikipedia.org/wiki/Battle_of_Achelous_(917)",
        "year": 917,
        "place": "Achelous river",
        "country": "Bulgaria",
        "war": "Byzantine-Bulgarian Wars",
        "coords": { "lat": 42.643056, "lng": 27.636667 }
    },
    {
        "name": "Battle of Kleidion",
        "article": "https://en.wikipedia.org/wiki/Battle_of_Kleidion",
        "year": 1014,
        "place": "Belasitsa Mountains",
        "country": "Bulgaria",
        "war": "Byzantine-Bulgarian Wars",
        "coords": { "lat": 41.366667, "lng": 23.016667 }
    },
    {
        "name": "Battle of Varna",
        "article": "https://en.wikipedia.org/wiki/Battle_of_Varna",
        "year": 1444,
        "place": "near Varna",
        "country": "Bulgaria",
        "war": "Crusade of Varna",
        "coords": { "lat": 43.216667, "lng": 27.883333 }
    },
    {
        "name": "Battle of Cape Kaliakra",
        "article": "https://en.wikipedia.org/wiki/Battle_of_Cape_Kaliakra",
        "year": 1791,
        "place": "Cape Kaliakra",
        "country": "Bulgaria",
        "war": "Russo-Turkish War",
        "coords": { "lat": 43.37411, "lng": 28.597412 }
    },
    {
        "name": "Battle of Plevna",
        "article": "https://en.wikipedia.org/wiki/Siege_of_Plevna",
        "year": 1877,
        "place": "Plevna",
        "country": "Bulgaria",
        "war": "Russo-Turkish War",
        "coords": { "lat": 43.416667, "lng": 24.616667 }
    },
    {
        "name": "Battle of Turtucaia",
        "article": "https://en.wikipedia.org/wiki/Battle_of_Turtucaia",
        "year": 1916,
        "place": "Turtucaia",
        "country": "Bulgaria",
        "war": "World War I",
        "coords": { "lat": 44.05, "lng": 26.6167 }
    },
    {
        "name": "Battle of Trsat",
        "article": "https://en.wikipedia.org/wiki/Siege_of_Trsat",
        "year": 799,
        "place": "Trsat",
        "country": "Croatia",
        "war": "Frankish campaign against Avars and Slavs",
        "coords": { "lat": 45.332, "lng": 14.455 }
    },
    {
        "name": "Battle of Gvozd Mountain",
        "article": "https://en.wikipedia.org/wiki/Battle_of_Gvozd_Mountain",
        "year": 1097,
        "place": "Gvozd Mountain (also Petrova Gora)",
        "country": "Croatia",
        "war": "War of the Croatian Succession",
        "coords": { "lat": 44.9, "lng": 15.516667 }
    },
    {
        "name": "Battle of Grobnik Field",
        "article": "https://en.wikipedia.org/wiki/Battle_of_Grobnik_Field",
        "year": 1242,
        "place": "Grobnik Field",
        "country": "Croatia",
        "war": "Mongol Invasion of Europe",
        "coords": { "lat": 45.3702747, "lng": 14.4412527 }
    },
    {
        "name": "Battle of Krbava Field",
        "article": "https://en.wikipedia.org/wiki/Battle_of_Krbava_Field",
        "year": 1493,
        "place": "Krbava",
        "country": "Croatia",
        "war": "Croatian–Ottoman wars",
        "coords": { "lat": 44.6, "lng": 15.7 }
    },
    {
        "name": "Siege of Szigetvár",
        "article": "https://en.wikipedia.org/wiki/Siege_of_Szigetvár",
        "year": 1566,
        "place": "Szigetvár",
        "country": "Croatia",
        "war": "Ottoman wars in Europe",
        "coords": { "lat": 46.050663, "lng": 17.797354 }
    },
    {
        "name": "Battle of Sisak",
        "article": "https://en.wikipedia.org/wiki/Battle_of_Sisak",
        "year": 1593,
        "place": "Sisak",
        "country": "Croatia",
        "war": "Croatian–Ottoman wars",
        "coords": { "lat": 45.470483, "lng": 16.386122 }
    },
    {
        "name": "Battle of Slankamen",
        "article": "https://en.wikipedia.org/wiki/Battle_of_Slankamen",
        "year": 1691,
        "place": "Slankamen",
        "country": "Croatia",
        "war": "Great Turkish War",
        "coords": { "lat": 45.1399, "lng": 20.2599 }
    },
    {
        "name": "Battle of Lissa",
        "article": "https://en.wikipedia.org/wiki/Battle_of_Lissa_(1866)",
        "year": 1866,
        "place": "off Lissa",
        "country": "Croatia",
        "war": "Third Italian War of Independence",
        "coords": { "lat": 43.176389, "lng": 16.053333 }
    },
    {
        "name": "Battle of Vukovar",
        "article": "https://en.wikipedia.org/wiki/Battle_of_Vukovar",
        "year": 1991,
        "place": "Vukovar",
        "country": "Croatia",
        "war": "Croatian War of Independence",
        "coords": { "lat": 45.374167, "lng": 18.9625 }
    },
    {
        "name": "Siege of Dubrovnik",
        "article": "https://en.wikipedia.org/wiki/Siege_of_Dubrovnik",
        "year": 1991,
        "place": "Dubrovnik area",
        "country": "Croatia",
        "war": "Croatian War of Independence",
        "coords": { "lat": 42.641346, "lng": 18.108644 }
    },
    {
        "name": "Operation Maslenica",
        "article": "https://en.wikipedia.org/wiki/Operation_Maslenica",
        "year": 1993,
        "place": "Maslenica",
        "country": "Croatia",
        "war": "Croatian War of Independence",
        "coords": { "lat": 44.236667, "lng": 15.522778 }
    },
    {
        "name": "Operation Flash",
        "article": "https://en.wikipedia.org/wiki/Operation_Flash",
        "year": 1995,
        "place": "Western Slavonia",
        "country": "Croatia",
        "war": "Croatian War of Independence",
        "coords": { "lat": 45.26, "lng": 17.2 }
    },
    {
        "name": "Battle of Vyšehrad",
        "article": "https://en.wikipedia.org/wiki/Battle_of_Vyšehrad",
        "year": 1419,
        "place": "Vyšehrad",
        "country": "Czechia",
        "war": "Hussite Wars",
        "coords": { "lat": 50.057778, "lng": 14.431111 }
    },
    {
        "name": "Battle of Vítkov Hill",
        "article": "https://en.wikipedia.org/wiki/Battle_of_Vítkov_Hill",
        "year": 1420,
        "place": "Vítkov Hill",
        "country": "Czechia",
        "war": "Hussite Wars",
        "coords": { "lat": 50.089167, "lng": 14.424722 }
    },
    {
        "name": "Battle of Lipany",
        "article": "https://en.wikipedia.org/wiki/Battle_of_Lipany",
        "year": 1434,
        "place": "Lipany",
        "country": "Czechia",
        "war": "Hussite Wars",
        "coords": { "lat": 50.028611, "lng": 14.936944 }
    },
    {
        "name": "Battle of Sablat",
        "article": "https://en.wikipedia.org/wiki/Battle_of_Sablat",
        "year": 1619,
        "place": "Záblatí",
        "country": "Czechia",
        "war": "Thirty Years' War",
        "coords": { "lat": 48.9881, "lng": 13.9431 }
    },
    {
        "name": "Battle of Wisternitz",
        "article": "https://en.wikipedia.org/wiki/Battle_of_Wisternitz",
        "year": 1619,
        "place": "Dolní Věstonice",
        "country": "Czechia",
        "war": "Thirty Years' War",
        "coords": { "lat": 48.896111, "lng": 16.648611 }
    },
    {
        "name": "Battle of White Mountain",
        "article": "https://en.wikipedia.org/wiki/Battle_of_White_Mountain",
        "year": 1620,
        "place": "White Mountain",
        "country": "Czechia",
        "war": "Thirty Years' War",
        "coords": { "lat": 50.078333, "lng": 14.319444 }
    },
    {
        "name": "Battle of Lobositz",
        "article": "https://en.wikipedia.org/wiki/Battle_of_Lobositz",
        "year": 1756,
        "place": "Lovosice",
        "country": "Czechia",
        "war": "Third Silesian War",
        "coords": { "lat": 50.512778, "lng": 14.033333 }
    },
    {
        "name": "Battle of Reichenberg",
        "article": "https://en.wikipedia.org/wiki/Battle_of_Reichenberg",
        "year": 1757,
        "place": "Liberec",
        "country": "Czechia",
        "war": "Third Silesian War",
        "coords": { "lat": 50.767, "lng": 15.0561 }
    },
    {
        "name": "Battle of Prague",
        "article": "https://en.wikipedia.org/wiki/Battle_of_Prague_(1757)",
        "year": 1757,
        "place": "Prague",
        "country": "Czechia",
        "war": "Third Silesian War",
        "coords": { "lat": 50.083333, "lng": 14.55 }
    },
    {
        "name": "Battle of Kolín",
        "article": "https://en.wikipedia.org/wiki/Battle_of_Kolín",
        "year": 1757,
        "place": "Kolín",
        "country": "Czechia",
        "war": "Third Silesian War",
        "coords": { "lat": 50.029, "lng": 15.122 }
    },
    {
        "name": "Battle of Domstadtl",
        "article": "https://en.wikipedia.org/wiki/Battle_of_Domstadtl",
        "year": 1758,
        "place": "Domašov nad Bystřicí",
        "country": "Czechia",
        "war": "Third Silesian War",
        "coords": { "lat": 49.7383, "lng": 17.4433 }
    },
    {
        "name": "Battle of Austerlitz",
        "article": "https://en.wikipedia.org/wiki/Battle_of_Austerlitz",
        "year": 1805,
        "place": "Austerlitz",
        "country": "Czechia",
        "war": "War of the Third Coalition",
        "coords": { "lat": 49.133333, "lng": 16.766667 }
    },
    {
        "name": "First Battle of Kulm",
        "article": "https://en.wikipedia.org/wiki/Battle_of_Kulm",
        "year": 1813,
        "place": "Kulm",
        "country": "Czechia",
        "war": "War of the Sixth Coalition",
        "coords": { "lat": 50.6972, "lng": 13.9389 }
    },
    {
        "name": "Second Battle of Kulm",
        "article": "https://en.wikipedia.org/wiki/Second_Battle_of_Kulm",
        "year": 1813,
        "place": "Kulm",
        "country": "Czechia",
        "war": "War of the Sixth Coalition",
        "coords": { "lat": 50.6972, "lng": 13.9389 }
    },
    {
        "name": "Battle of Königgrätz",
        "article": "https://en.wikipedia.org/wiki/Battle_of_Königgrätz",
        "year": 1866,
        "place": "Königgrätz",
        "country": "Austria",
        "war": "Austro-Prussian War",
        "coords": { "lat": 50.27, "lng": 15.75 }
    },
    {
        "name": "Prague Offensive",
        "article": "https://en.wikipedia.org/wiki/Prague_offensive",
        "year": 1945,
        "place": "Prague",
        "country": "Czechoslovakia (now Czechia)",
        "war": "World War II",
        "coords": { "lat": 50.083333, "lng": 14.55 }
    },
    {
        "name": "Battle of Grathe Heath",
        "article": "https://en.wikipedia.org/wiki/Battle_of_Grathe_Heath",
        "year": 1157,
        "place": "Jutland Peninsula",
        "country": "Denmark",
        "war": "Danish Civil War",
        "coords": { "lat": 56.267975, "lng": 9.341211 }
    },
    {
        "name": "Siege of Copenhagen (1289)",
        "article": "https://en.wikipedia.org/wiki/Battle_of_Copenhagen_(1289)",
        "year": 1289,
        "place": "Copenhagen",
        "country": "Denmark",
        "war": "War of the Outlaws",
        "coords": { "lat": 55.676111, "lng": 12.568333 }
    },
    {
        "name": "Battle of Kolding",
        "article": "https://en.wikipedia.org/wiki/Battle_of_Kolding_(1644)",
        "year": 1644,
        "place": "Kolding",
        "country": "Denmark",
        "war": "Torstenson War",
        "coords": { "lat": 55.491667, "lng": 9.5 }
    },
    {
        "name": "Action of 16 May, 1644",
        "article": "https://en.wikipedia.org/wiki/Action_of_16_May_1644",
        "year": 1644,
        "place": "off Jylland",
        "country": "Denmark",
        "war": "Torstenson War",
        "coords": { "lat": 55.0735, "lng": 8.452333 }
    },
    {
        "name": "Assault of Copenhagen",
        "article": "https://en.wikipedia.org/wiki/Assault_on_Copenhagen_(1659)",
        "year": 1659,
        "place": "Copenhagen",
        "country": "Denmark",
        "war": "Second Northern War",
        "coords": { "lat": 55.676111, "lng": 12.568333 }
    },
    {
        "name": "Battle of Copenhagen",
        "article": "https://en.wikipedia.org/wiki/Battle_of_Copenhagen_(1801)",
        "year": 1801,
        "place": "Copenhagen",
        "country": "Denmark",
        "war": "War of the Second Coalition",
        "coords": { "lat": 55.676111, "lng": 12.568333 }
    },
    {
        "name": "Battle of Køge",
        "article": "https://en.wikipedia.org/wiki/Battle_of_Køge",
        "year": 1807,
        "place": "Køge",
        "country": "Denmark",
        "war": "Napoleonic Wars",
        "coords": { "lat": 55.456111, "lng": 12.179722 }
    },
    {
        "name": "Battle of Copenhagen",
        "article": "https://en.wikipedia.org/wiki/Battle_of_Copenhagen_(1807)",
        "year": 1807,
        "place": "Copenhagen",
        "country": "Denmark",
        "war": "Gunboat War",
        "coords": { "lat": 55.676111, "lng": 12.568333 }
    },
    {
        "name": "Battle of Anholt",
        "article": "https://en.wikipedia.org/wiki/Battle_of_Anholt",
        "year": 1811,
        "place": "Anholt",
        "country": "Denmark",
        "war": "Napoleonic Wars",
        "coords": { "lat": 56.7, "lng": 11.566667 }
    },
    {
        "name": "Battle of Nybøl",
        "article": "https://en.wikipedia.org/wiki/Battle_of_Nybøl",
        "year": 1848,
        "place": "Nybøl Parish, Sundeved",
        "country": "Denmark",
        "war": "First Schleswig War",
        "coords": { "lat": 54.95, "lng": 9.683333 }
    },
    {
        "name": "Battle of Dybbøl",
        "article": "https://en.wikipedia.org/wiki/Battle_of_Dybbøl_(1848)",
        "year": 1848,
        "place": "Dybbøl",
        "country": "Denmark",
        "war": "First Schleswig War",
        "coords": { "lat": 54.919444, "lng": 9.722222 }
    },
    {
        "name": "Battle of Kolding",
        "article": "https://en.wikipedia.org/wiki/Battle_of_Kolding_(1849)",
        "year": 1849,
        "place": "Kolding",
        "country": "Denmark",
        "war": "First Schleswig War",
        "coords": { "lat": 55.491667, "lng": 9.5 }
    },
    {
        "name": "Battle of Århus",
        "article": "https://en.wikipedia.org/wiki/Skirmish_of_Århus",
        "year": 1849,
        "place": "Vejlby",
        "country": "Denmark",
        "war": "First Schleswig War",
        "coords": { "lat": 56.193471, "lng": 10.201914 }
    },
    {
        "name": "Battle of Fredericia",
        "article": "https://en.wikipedia.org/wiki/Battle_of_Fredericia",
        "year": 1849,
        "place": "Fredericia",
        "country": "Denmark",
        "war": "First Schleswig War",
        "coords": { "lat": 55.5675, "lng": 9.753333 }
    },
    {
        "name": "Battle of Mysunde",
        "article": "https://en.wikipedia.org/wiki/Battle_of_Mysunde_(1864)",
        "year": 1864,
        "place": "Missunde",
        "country": "Denmark",
        "war": "Second Schleswig War",
        "coords": { "lat": 54.516667, "lng": 9.716667 }
    },
    {
        "name": "Battle of Als",
        "article": "https://en.wikipedia.org/wiki/Battle_of_Als",
        "year": 1864,
        "place": "On and near the island of Als",
        "country": "Denmark",
        "war": "Second Schleswig War",
        "coords": { "lat": 54.9833, "lng": 9.9167 }
    },
    {
        "name": "Battle of Dyrham",
        "article": "https://en.wikipedia.org/wiki/Battle_of_Deorham",
        "year": 577,
        "place": "Hinton Hill near Dyrham",
        "country": "England",
        "war": "Anglo-Saxon settlement of Britain",
        "coords": { "lat": 51.4891, "lng": -2.373706 }
    },
    {
        "name": "Battle of Catraeth",
        "article": "https://en.wikipedia.org/wiki/Battle_of_Catraeth",
        "year": 600,
        "place": "Catraeth",
        "country": "England",
        "war": "Anglo-Saxon settlement of Britain",
        "coords": { "lat": 54.377358, "lng": -1.630096 }
    },
    {
        "name": "Battle of Heavenfield",
        "article": "https://en.wikipedia.org/wiki/Battle_of_Heavenfield",
        "year": 634,
        "place": "near Hexham",
        "country": "England",
        "war": "Anglo-Saxon settlement of Britain",
        "coords": { "lat": 55.0203, "lng": -2.1005 }
    },
    {
        "name": "Battle of Englefield",
        "article": "https://en.wikipedia.org/wiki/Battle_of_Englefield",
        "year": 870,
        "place": "Englefield",
        "country": "England",
        "war": "Viking Invasions of England",
        "coords": { "lat": 51.444, "lng": -1.1 }
    },
    {
        "name": "Battle of Reading",
        "article": "https://en.wikipedia.org/wiki/Battle_of_Reading_(871)",
        "year": 871,
        "place": "Reading",
        "country": "England",
        "war": "Viking Invasions of England",
        "coords": { "lat": 51.46, "lng": -0.96 }
    },
    {
        "name": "Battle of Edington",
        "article": "https://en.wikipedia.org/wiki/Battle_of_Ethandun",
        "year": 878,
        "place": "Edington",
        "country": "England",
        "war": "Viking Invasions of England",
        "coords": { "lat": 51.263889, "lng": -2.142778 }
    },
    {
        "name": "Battle of Corbridge",
        "article": "https://en.wikipedia.org/wiki/Battle_of_Corbridge",
        "year": 918,
        "place": "Corbridge",
        "country": "England",
        "war": "Viking Invasions of England",
        "coords": { "lat": 54.974092, "lng": -2.017064 }
    },
    {
        "name": "Battle of Maldon",
        "article": "https://en.wikipedia.org/wiki/Battle_of_Maldon",
        "year": 991,
        "place": "Maldon",
        "country": "England",
        "war": "Viking Invasions of England",
        "coords": { "lat": 51.715278, "lng": 0.700833 }
    },
    {
        "name": "Battle of Stamford Bridge",
        "article": "https://en.wikipedia.org/wiki/Battle_of_Stamford_Bridge",
        "year": 1066,
        "place": "Stamford Bridge",
        "country": "England",
        "war": "Viking Invasions of England",
        "coords": { "lat": 53.9925, "lng": -0.9125 }
    },
    {
        "name": "Battle of Fulford",
        "article": "https://en.wikipedia.org/wiki/Battle_of_Fulford",
        "year": 1066,
        "place": "Fulford",
        "country": "England",
        "war": "Viking Invasions of England",
        "coords": { "lat": 0, "lng": 0 }
    },
    {
        "name": "Battle of Hastings",
        "article": "https://en.wikipedia.org/wiki/Battle_of_Hastings",
        "year": 1066,
        "place": "Battle, East Sussex",
        "country": "England",
        "war": "Norman Conquest",
        "coords": { "lat": 50.911944, "lng": 0.4875 }
    },
    {
        "name": "Burning of Southwark",
        "article": "https://en.wikipedia.org/wiki/Burning_of_Southwark",
        "year": 1066,
        "place": "Southwark",
        "country": "England",
        "war": "Norman Conquest",
        "coords": { "lat": 51.4988, "lng": -0.0901 }
    },
    {
        "name": "Siege of Exeter",
        "article": "https://en.wikipedia.org/wiki/Siege_of_Exeter_(1068)",
        "year": 1068,
        "place": "Exeter",
        "country": "England",
        "war": "Norman Conquest",
        "coords": { "lat": 50.725833, "lng": -3.529722 }
    },
    {
        "name": "Battle of Alnwick",
        "article": "https://en.wikipedia.org/wiki/Battle_of_Alnwick_(1093)",
        "year": 1093,
        "place": "near Alnwick",
        "country": "England",
        "war": "",
        "coords": { "lat": 55.416667, "lng": -1.717222 }
    },
    {
        "name": "Battle of the Standard",
        "article": "https://en.wikipedia.org/wiki/Battle_of_the_Standard",
        "year": 1138,
        "place": "Cowton Moor",
        "country": "England",
        "war": "The Anarchy",
        "coords": { "lat": 54.37354, "lng": -1.44734 }
    },
    {
        "name": "Battle of Alnwick",
        "article": "https://en.wikipedia.org/wiki/Battle_of_Alnwick_(1174)",
        "year": 1174,
        "place": "Alnwick",
        "country": "England",
        "war": "Revolt of 1173–74",
        "coords": { "lat": 55.416667, "lng": -1.717222 }
    },
    {
        "name": "Battle of Lewes",
        "article": "https://en.wikipedia.org/wiki/Battle_of_Lewes",
        "year": 1264,
        "place": "Lewes",
        "country": "England",
        "war": "Second Barons' War",
        "coords": { "lat": 50.878611, "lng": -0.013889 }
    },
    {
        "name": "Battle of Evesham",
        "article": "https://en.wikipedia.org/wiki/Battle_of_Evesham",
        "year": 1265,
        "place": "Evesham",
        "country": "England",
        "war": "Second Barons' War",
        "coords": { "lat": 52.105873, "lng": -1.944537 }
    },
    {
        "name": "Battle of Myton",
        "article": "https://en.wikipedia.org/wiki/Battle_of_Myton",
        "year": 1319,
        "place": "Myton-on-Swale",
        "country": "England",
        "war": "First War of Scottish Independence",
        "coords": { "lat": 54.0956, "lng": -1.3409 }
    },
    {
        "name": "Battle of Burton Bridge",
        "article": "https://en.wikipedia.org/wiki/Battle_of_Burton_Bridge_(1322)",
        "year": 1322,
        "place": "Burton upon Trent",
        "country": "England",
        "war": "Despenser War",
        "coords": { "lat": 52.8067, "lng": -1.6238 }
    },
    {
        "name": "Battle of Boroughbridge",
        "article": "https://en.wikipedia.org/wiki/Battle_of_Boroughbridge",
        "year": 1322,
        "place": "Boroughbridge",
        "country": "England",
        "war": "Despenser War",
        "coords": { "lat": 54.097778, "lng": -1.4075 }
    },
    {
        "name": "Battle of Old Byland",
        "article": "https://en.wikipedia.org/wiki/Battle_of_Old_Byland",
        "year": 1322,
        "place": "Scawton Moor",
        "country": "England",
        "war": "First War of Scottish Independence",
        "coords": { "lat": 54.227, "lng": -1.159 }
    },
    {
        "name": "Battle of Stanhope Park",
        "article": "https://en.wikipedia.org/wiki/Battle_of_Stanhope_Park",
        "year": 1327,
        "place": "Stanhope Park",
        "country": "England",
        "war": "First War of Scottish Independence",
        "coords": { "lat": 54.741111, "lng": -2.11 }
    },
    {
        "name": "Battle of Halidon Hill",
        "article": "https://en.wikipedia.org/wiki/Battle_of_Halidon_Hill",
        "year": 1333,
        "place": "Halidon Hill",
        "country": "England",
        "war": "Second War of Scottish Independence",
        "coords": { "lat": 55.78579, "lng": -2.05178 }
    },
    {
        "name": "Battle of Neville's Cross",
        "article": "https://en.wikipedia.org/wiki/Battle_of_Neville%27s_Cross",
        "year": 1346,
        "place": "Neville's Cross",
        "country": "England",
        "war": "Second War of Scottish Independence",
        "coords": { "lat": 54.776, "lng": -1.597 }
    },
    {
        "name": "Battle of Otterburn",
        "article": "https://en.wikipedia.org/wiki/Battle_of_Otterburn",
        "year": 1388,
        "place": "near Otterburn",
        "country": "England",
        "war": "Anglo-Scottish border conflicts",
        "coords": { "lat": 55.236, "lng": -2.195 }
    },
    {
        "name": "Battle of Homildon Hill",
        "article": "https://en.wikipedia.org/wiki/Battle_of_Humbleton_Hill",
        "year": 1402,
        "place": "Wooler",
        "country": "England",
        "war": "Anglo-Scottish Wars",
        "coords": { "lat": 55.559, "lng": -2.052 }
    },
    {
        "name": "Battle of Shrewsbury",
        "article": "https://en.wikipedia.org/wiki/Battle_of_Shrewsbury",
        "year": 1403,
        "place": "Shrewsbury",
        "country": "England",
        "war": "Glyndŵr Rising",
        "coords": { "lat": 52.7475, "lng": -2.7185 }
    },
    {
        "name": "First Battle of St Albans",
        "article": "https://en.wikipedia.org/wiki/First_Battle_of_St_Albans",
        "year": 1455,
        "place": "St Albans",
        "country": "England",
        "war": "Wars of the Roses",
        "coords": { "lat": 51.7487, "lng": -0.339 }
    },
    {
        "name": "Battle of Blore Heath",
        "article": "https://en.wikipedia.org/wiki/Battle_of_Blore_Heath",
        "year": 1459,
        "place": "Blore Heath",
        "country": "England",
        "war": "Wars of the Roses",
        "coords": { "lat": 52.913611, "lng": -2.424722 }
    },
    {
        "name": "Battle of Ludford Bridge",
        "article": "https://en.wikipedia.org/wiki/Battle_of_Ludford_Bridge",
        "year": 1459,
        "place": "Ludford Bridge",
        "country": "England",
        "war": "Wars of the Roses",
        "coords": { "lat": 52.36375, "lng": -2.718889 }
    },
    {
        "name": "Battle of Northampton",
        "article": "https://en.wikipedia.org/wiki/Battle_of_Northampton_(1460)",
        "year": 1460,
        "place": "Northampton",
        "country": "England",
        "war": "Wars of the Roses",
        "coords": { "lat": 52.223167, "lng": -0.884111 }
    },
    {
        "name": "Battle of Wakefield",
        "article": "https://en.wikipedia.org/wiki/Battle_of_Wakefield",
        "year": 1460,
        "place": "Wakefield",
        "country": "England",
        "war": "Wars of the Roses",
        "coords": { "lat": 53.68, "lng": -1.492222 }
    },
    {
        "name": "Battle of Mortimer's Cross",
        "article": "https://en.wikipedia.org/wiki/Battle_of_Mortimer%27s_Cross",
        "year": 0,
        "place": "Kingsland",
        "country": "England",
        "war": "Wars of the Roses",
        "coords": { "lat": 52.259, "lng": -2.838 }
    },
    {
        "name": "Second Battle of St Albans",
        "article": "https://en.wikipedia.org/wiki/Second_Battle_of_St_Albans",
        "year": 1461,
        "place": "St Albans",
        "country": "England",
        "war": "Wars of the Roses",
        "coords": { "lat": 51.7487, "lng": -0.339 }
    },
    {
        "name": "Battle of Ferrybridge",
        "article": "https://en.wikipedia.org/wiki/Battle_of_Ferrybridge",
        "year": 1461,
        "place": "Ferrybridge",
        "country": "England",
        "war": "Wars of the Roses",
        "coords": { "lat": 53.7125, "lng": -1.273611 }
    },
    {
        "name": "Battle of Towtown",
        "article": "https://en.wikipedia.org/wiki/Battle_of_Towton",
        "year": 1461,
        "place": "neat Towtown",
        "country": "England",
        "war": "Wars of the Roses",
        "coords": { "lat": 53.836111, "lng": -1.273611 }
    },
    {
        "name": "Battle of Hedgeley Moor",
        "article": "https://en.wikipedia.org/wiki/Battle_of_Hedgeley_Moor",
        "year": 1464,
        "place": "Hedgeley Moor",
        "country": "England",
        "war": "Wars of the Roses",
        "coords": { "lat": 55.471, "lng": -1.924	}
    },
    {
        "name": "Battle of Hexham",
        "article": "https://en.wikipedia.org/wiki/Battle_of_Hexham",
        "year": 1464,
        "place": "Hexham",
        "country": "England",
        "war": "Wars of the Roses",
        "coords": { "lat": 54.97, "lng": -2.1 }
    },
    {
        "name": "Battle of Danes Moor",
        "article": "https://en.wikipedia.org/wiki/Battle_of_Edgcote",
        "year": 1469,
        "place": "Danes Moor",
        "country": "England",
        "war": "Wars of the Roses",
        "coords": { "lat": 52.114444, "lng": -1.247222 }
    },
    {
        "name": "Battle of Losecoat Field",
        "article": "https://en.wikipedia.org/wiki/Battle_of_Losecoat_Field",
        "year": 1470,
        "place": "Tickencote Warren",
        "country": "England",
        "war": "Wars of the Roses",
        "coords": { "lat": 52.686111, "lng": -0.536111 }
    },
    {
        "name": "Battle of Barnet",
        "article": "https://en.wikipedia.org/wiki/Battle_of_Barnet",
        "year": 1471,
        "place": "Barnet",
        "country": "England",
        "war": "Wars of the Roses",
        "coords": { "lat": 51.662222, "lng": -0.2 }
    },
    {
        "name": "Battle of Tewkesbury",
        "article": "https://en.wikipedia.org/wiki/Battle_of_Tewkesbury",
        "year": 1471,
        "place": "Tewkesbury",
        "country": "England",
        "war": "Wars of the Roses",
        "coords": { "lat": 51.986389, "lng": -2.161389 }
    },
    {
        "name": "Battle of Bosworth Field",
        "article": "https://en.wikipedia.org/wiki/Battle_of_Bosworth_Field",
        "year": 1485,
        "place": "near Ambion Hill",
        "country": "England",
        "war": "Wars of the Roses",
        "coords": { "lat": 52.591111, "lng": -1.410278 }
    },
    {
        "name": "Battle of Stoke Field",
        "article": "https://en.wikipedia.org/wiki/Battle_of_Stoke_Field",
        "year": 1487,
        "place": "East Stoke",
        "country": "England",
        "war": "Wars of the Roses",
        "coords": { "lat": 53.035, "lng": -0.888 }
    },
    {
        "name": "Battle of Flodden",
        "article": "https://en.wikipedia.org/wiki/Battle_of_Flodden_Field",
        "year": 1513,
        "place": "neat Branxton",
        "country": "England",
        "war": "War of the League of Cambrai",
        "coords": { "lat": 55.62693, "lng": -2.1753 }
    },
    {
        "name": "Battle of Newburn",
        "article": "https://en.wikipedia.org/wiki/Battle_of_Newburn",
        "year": 1640,
        "place": "Newburn",
        "country": "England",
        "war": "Second Bishops' War",
        "coords": { "lat": 54.983333, "lng": -1.751389 }
    },
    {
        "name": "Battle of Edge Hill",
        "article": "https://en.wikipedia.org/wiki/Battle_of_Edgehill",
        "year": 1642,
        "place": "Edge Hill",
        "country": "England",
        "war": "First English Civil War",
        "coords": { "lat": 52.150981, "lng": -1.481892 }
    },
    {
        "name": "Battle of Powick Bridge",
        "article": "https://en.wikipedia.org/wiki/Battle_of_Powick_Bridge",
        "year": 1642,
        "place": "Worcester",
        "country": "England",
        "war": "First English Civil War",
        "coords": { "lat": 52.17, "lng": -2.2425 }
    },
    {
        "name": "Battle of Braddock Down",
        "article": "https://en.wikipedia.org/wiki/Battle_of_Braddock_Down",
        "year": 1643,
        "place": "Braddock Down",
        "country": "England",
        "war": "First English Civil War",
        "coords": { "lat": 50.414167, "lng": -4.567222 }
    },
    {
        "name": "Battle of Burton Bridge",
        "article": "https://en.wikipedia.org/wiki/Battle_of_Burton_Bridge_(1643)",
        "year": 1643,
        "place": "Burton upon Trent",
        "country": "England",
        "war": "First English Civil War",
        "coords": { "lat": 52.8067, "lng": -1.6238 }
    },
    {
        "name": "Battle of Winceby",
        "article": "https://en.wikipedia.org/wiki/Battle_of_Winceby",
        "year": 1643,
        "place": "Winceby",
        "country": "England",
        "war": "First English Civil War",
        "coords": { "lat": 53.201667, "lng": -0.031667 }
    },
    {
        "name": "Battle of Marston Moor",
        "article": "https://en.wikipedia.org/wiki/Battle_of_Marston_Moor",
        "year": 1644,
        "place": "near Long Marston",
        "country": "England",
        "war": "First English Civil War",
        "coords": { "lat": 53.9637, "lng": -1.2619 }
    },
    {
        "name": "Battle of Naseby",
        "article": "https://en.wikipedia.org/wiki/Battle_of_Naseby",
        "year": 1645,
        "place": "Naseby",
        "country": "England",
        "war": "First English Civil War",
        "coords": { "lat": 52.41561, "lng": -0.99529 }
    },
    {
        "name": "Battle of Maidstone",
        "article": "https://en.wikipedia.org/wiki/Battle_of_Maidstone",
        "year": 1648,
        "place": "Maidstone",
        "country": "England",
        "war": "Second English Civil War",
        "coords": { "lat": 51.27, "lng": 0.524 }
    },
    {
        "name": "Battle of Preston",
        "article": "https://en.wikipedia.org/wiki/Battle_of_Preston_(1648)",
        "year": 1648,
        "place": "Preston",
        "country": "England",
        "war": "Second English Civil War",
        "coords": { "lat": 53.759, "lng": -2.699 }
    },
    {
        "name": "Battle of St Fagans",
        "article": "https://en.wikipedia.org/wiki/Battle_of_St_Fagans",
        "year": 1648,
        "place": "St Fagans",
        "country": "Wales",
        "war": "Second English Civil War",
        "coords": { "lat": 51.48593, "lng": -3.27309 }
    },
    {
        "name": "Battle of Sedgemoor",
        "article": "https://en.wikipedia.org/wiki/Battle_of_Sedgemoor",
        "year": 1685,
        "place": "Westonzoyland",
        "country": "England",
        "war": "Monmouth Rebellion",
        "coords": { "lat": 51.115556, "lng": -2.928333 }
    },
    {
        "name": "Battle of Reading",
        "article": "https://en.wikipedia.org/wiki/Battle_of_Reading_(1688)",
        "year": 1688,
        "place": "Reading",
        "country": "England",
        "war": "Glorious Revolution",
        "coords": { "lat": 51.4557, "lng": -0.9733 }
    },



    {
        "name": "Battle of Ümera",
        "article": "https://en.wikipedia.org/wiki/Battle_of_Ümera",
        "year": 1210,
        "place": "Valmiera",
        "country": "Estonia",
        "war": "Livonian crusade",
        "coords": { "lat": 57.55, "lng": 25.4 }
    },
    {
        "name": "Battle of Viljandi",
        "article": "https://en.wikipedia.org/wiki/Battle_of_Viljandi",
        "year": 1211,
        "place": "Viljandi",
        "country": "Estonia",
        "war": "Livonian Crusade",
        "coords": { "lat": 58.359444, "lng": 25.596111 }
    },
    {
        "name": "Battle of Otepää",
        "article": "https://en.wikipedia.org/wiki/Battle_of_Otepää_(1217)",
        "year": 1217,
        "place": "Otepää",
        "country": "Estonia",
        "war": "Livonian Crusade",
        "coords": { "lat": 58.0575, "lng": 26.504722 }
    },
    {
        "name": "Battle of St. Matthew's Day",
        "article": "https://en.wikipedia.org/wiki/Battle_of_St._Matthew%27s_Day",
        "year": 1217,
        "place": "near Viljandi",
        "country": "Estonia",
        "war": "Livonian Crusade",
        "coords": { "lat": 58.359444, "lng": 25.596111 }
    },
    {
        "name": "Battle of Lindanise",
        "article": "https://en.wikipedia.org/wiki/Battle_of_Lyndanisse",
        "year": 1219,
        "place": "Lindanise (Tallinn)",
        "country": "Estonia",
        "war": "Livonian Crusade",
        "coords": { "lat": 59.435278, "lng": 24.739444 }
    },
    {
        "name": "Battle of Lihula",
        "article": "https://en.wikipedia.org/wiki/Battle_of_Lihula",
        "year": 1220,
        "place": "Lihula",
        "country": "Estonia",
        "war": "Livonian Crusade",
        "coords": { "lat": 58.694444, "lng": 23.839444 }
    },
    {
        "name": "Battle of Tarbatu",
        "article": "https://en.wikipedia.org/wiki/Siege_of_Tartu_(1224)",
        "year": 1224,
        "place": "Tartu",
        "country": "Estonia",
        "war": "Livonian Crusade",
        "coords": { "lat": 58.383333, "lng": 26.716667 }
    },
    {
        "name": "Battle of Muhu",
        "article": "https://en.wikipedia.org/wiki/Battle_of_Muhu",
        "year": 1227,
        "place": "Muhu",
        "country": "Estonia",
        "war": "Livonian Crusade",
        "coords": { "lat": 58.596111, "lng": 23.237778 }
    },
    {
        "name": "Battle of the Ice",
        "article": "https://en.wikipedia.org/wiki/Battle_of_the_Ice",
        "year": 1242,
        "place": "Lake Peipus",
        "country": "Estonia",
        "war": "Livonian Crusade",
        "coords": { "lat": 58.233333, "lng": 27.5 }
    },
    {
        "name": "Battle of Wesenberg",
        "article": "https://en.wikipedia.org/wiki/Battle_of_Wesenberg_(1268)",
        "year": 1268,
        "place": "near Rakvere",
        "country": "Estonia",
        "war": "Livonian Crusade",
        "coords": { "lat": 59.35, "lng": 26.35 }
    },
    {
        "name": "Battle of Karuse",
        "article": "https://en.wikipedia.org/wiki/Battle_of_Karuse",
        "year": 1270,
        "place": "Moon Sound",
        "country": "Estonia",
        "war": "Livonian Crusade",
        "coords": { "lat": 58.55, "lng": 23.45 }
    },
    {
        "name": "Battle of Ērģeme",
        "article": "https://en.wikipedia.org/wiki/Battle_of_Ergeme",
        "year": 1560,
        "place": "Ērģeme",
        "country": "Latvia",
        "war": "Livonian War",
        "coords": { "lat": 57.805506, "lng": 25.815828 }
    },
    {
        "name": "Battle of Narva",
        "article": "https://en.wikipedia.org/wiki/Battle_of_Narva_(1700)",
        "year": 1700,
        "place": "Narva",
        "country": "Estonia",
        "war": "Great Northern War",
        "coords": { "lat": 59.3667, "lng": 28.1833 }
    },
    {
        "name": "Battle of Erastvere",
        "article": "https://en.wikipedia.org/wiki/Battle_of_Erastvere",
        "year": 1702,
        "place": "Erastvere",
        "country": "Estonia",
        "war": "Great Northern War",
        "coords": { "lat": 57.966667, "lng": 26.783333 }
    },
    {
        "name": "Battle of Ösel island ",
        "article": "https://en.wikipedia.org/wiki/Battle_of_Ösel_Island",
        "year": 1719,
        "place": "near Saaremaa",
        "country": "Estonia",
        "war": "Great Northern War",
        "coords": { "lat": 58.4167, "lng": 22.5 }
    },
    {
        "name": "Battle of Reval",
        "article": "https://en.wikipedia.org/wiki/Battle_of_Reval",
        "year": 1790,
        "place": "off Reval",
        "country": "Estonia",
        "war": "Russo-Swedish War",
        "coords": { "lat": 59.637567, "lng": 24.554429 }
    },
    {
        "name": "Battle of Krivasoo",
        "article": "https://en.wikipedia.org/wiki/Battle_of_Krivasoo",
        "year": 1919,
        "place": "Krivasoo",
        "country": "Estonia",
        "war": "Estonian War of Independence",
        "coords": { "lat": 59.116667, "lng": 28.083333 }
    },
    {
        "name": "Battle of Laagna",
        "article": "https://en.wikipedia.org/wiki/Battle_of_Laagna",
        "year": 1919,
        "place": "Laagna",
        "country": "Estonia",
        "war": "Estonian War of Independence",
        "coords": { "lat": 59.383333, "lng": 27.983333 }
    },
    {
        "name": "Battle of Paju",
        "article": "https://en.wikipedia.org/wiki/Battle_of_Paju",
        "year": 1919,
        "place": "Paju",
        "country": "Estonia",
        "war": "Estonian War of Independence",
        "coords": { "lat": 57.820144, "lng": 26.111628 }
    },
    {
        "name": "Battle of Kautla",
        "article": "https://en.wikipedia.org/wiki/Battle_of_Kautla",
        "year": 1941,
        "place": "Kautla",
        "country": "Estonia",
        "war": "World War II",
        "coords": { "lat": 59.127222, "lng": 25.445 }
    },
    {
        "name": "Kingisepp–Gdov offensive",
        "article": "https://en.wikipedia.org/wiki/Kingisepp–Gdov_offensive",
        "year": 1944,
        "place": "Narva",
        "country": "Estonia",
        "war": "World War II",
        "coords": { "lat": 59.375833, "lng": 28.196111 }
    },
    {
        "name": "Battle for Narva Bridgehead",
        "article": "https://en.wikipedia.org/wiki/Battle_for_Narva_Bridgehead",
        "year": 1944,
        "place": "Narva",
        "country": "Estonia",
        "war": "World War II",
        "coords": { "lat": 59.375833, "lng": 28.196111 }
    },
    {
        "name": "Battle of Tannenberg Line",
        "article": "https://en.wikipedia.org/wiki/Battle_of_Tannenberg_Line",
        "year": 1944,
        "place": "Sinimäed Hills",
        "country": "Estonia",
        "war": "World War II",
        "coords": { "lat": 59.375556, "lng": 27.854722 }
    },
    {
        "name": "Tartu Offensive",
        "article": "https://en.wikipedia.org/wiki/Tartu_offensive",
        "year": 1944 ,
        "place": "Emajõgi River",
        "country": "Estonia",
        "war": "World War II",
        "coords": { "lat": 58.366667, "lng": 26.716667 }
},
    {
        "name": "Tallinn Offensive",
        "article": "https://en.wikipedia.org/wiki/Tallinn_Offensive",
        "year": 1944,
        "place": "Tallinn",
        "country": "Estonia",
        "war": "World War II",
        "coords": { "lat": 59.433333, "lng": 24.733333 }
    },
    {
        "name": "Battle of Porkuni",
        "article": "https://en.wikipedia.org/wiki/Battle_of_Porkuni",
        "year": 1944,
        "place": "Porkuni",
        "country": "Estonia",
        "war": "World War II",
        "coords": { "lat": 59.177778, "lng": 26.160278 }
    },
    {
        "name": "Battle of Tehumardi",
        "article": "https://en.wikipedia.org/wiki/Battle_of_Tehumardi",
        "year": 1944,
        "place": "Tehumardi",
        "country": "Estonia",
        "war": "World War II",
        "coords": { "lat": 58.176389, "lng": 22.25 }
    },



    {
        "name": "Battle of Gangut",
        "article": "https://en.wikipedia.org/wiki/Battle_of_Gangut",
        "year": 1714,
        "place": "Hanko Peninsula",
        "country": "Finland",
        "war": "Great Northern War",
        "coords": { "lat": 59.937222, "lng": 23.081667 }
    },
    {
        "name": "Battle of Tampere",
        "article": "https://en.wikipedia.org/wiki/Battle_of_Tampere",
        "year": 1918,
        "place": "Tampere",
        "country": "Finland",
        "war": "Finnish Civil War",
        "coords": { "lat": 61.498011, "lng": 23.763686 }
    },
    {
        "name": "Battle of Länkipohja",
        "article": "https://en.wikipedia.org/wiki/Battle_of_Länkipohja",
        "year": 1918,
        "place": "Länkipohja",
        "country": "Finland",
        "war": "Finnish Civil War",
        "coords": { "lat": 61.735833, "lng": 24.795556 }
    },
    {
        "name": "Battle of Petsamo",
        "article": "https://en.wikipedia.org/wiki/Battle_of_Petsamo_(1939)",
        "year": 1939,
        "place": "Petsamo",
        "country": "Finland",
        "war": "Winter War",
        "coords": { "lat": 69.25, "lng": 30.566667 }
    },
    {
        "name": "Battle of Salla",
        "article": "https://en.wikipedia.org/wiki/Battle_of_Salla_(1939)",
        "year": 1939,
        "place": "Salla",
        "country": "Finland",
        "war": "Winter War",
        "coords": { "lat": 66.833333, "lng": 28.666667 }
    },
    {
        "name": "Battle of Kollaa",
        "article": "https://en.wikipedia.org/wiki/Battle_of_Kollaa",
        "year": 1939,
        "place": "Kollaa River",
        "country": "Finland",
        "war": "Winter War",
        "coords": { "lat": 62.027778, "lng": 32.255556 }
    },
    {
        "name": "Battle of Suomussalmi",
        "article": "https://en.wikipedia.org/wiki/Battle_of_Suomussalmi",
        "year": 1939,
        "place": "Suomussalmi",
        "country": "Finland",
        "war": "Winter War",
        "coords": { "lat": 64.888333, "lng": 28.888889 }
    },
    {
        "name": "Battle of Tolvajärvi",
        "article": "https://en.wikipedia.org/wiki/Battle_of_Tolvajärvi",
        "year": 1939,
        "place": "Tolvajärvi",
        "country": "Finland",
        "war": "Winter War",
        "coords": { "lat": 62.287057, "lng": 31.485492 }
    },
    {
        "name": "Battle of Taipale",
        "article": "https://en.wikipedia.org/wiki/Battle_of_Taipale",
        "year": 1939,
        "place": "Metsäpirtti",
        "country": "Finland",
        "war": "Winter War",
        "coords": { "lat": 60.507342, "lng": 29.012389 }
    },
    {
        "name": "Battle of Raate Road ",
        "article": "https://en.wikipedia.org/wiki/Battle_of_Raate-Road",
        "year": 1940,
        "place": "Suomussalmi",
        "country": "Finland",
        "war": "Winter War",
        "coords": { "lat": 64.848056, "lng": 29.326389 }
    },
    {
        "name": "First Battle of Summa",
        "article": "https://en.wikipedia.org/wiki/Battle_of_Summa",
        "year": 1939,
        "place": "Summa",
        "country": "Finland",
        "war": "Winter War",
        "coords": { "lat": 60.507342, "lng": 29.012389 }
    },
    {
        "name": "Second Battle of Summa",
        "article": "https://en.wikipedia.org/wiki/Battle_of_Summa",
        "year": 1940,
        "place": "Summa",
        "country": "Finland",
        "war": "Winter War",
        "coords": { "lat": 60.507342, "lng": 29.012389 }
    },
    {
        "name": "Battle of Honkaniemi",
        "article": "https://en.wikipedia.org/wiki/Battle_of_Honkaniemi",
        "year": 1940,
        "place": "Karelian Isthmus",
        "country": "Finland",
        "war": "Winter War",
        "coords": { "lat": 60.65, "lng": 28.783333 }
    },
    {
        "name": "Battle of Tali-Ihantala",
        "article": "https://en.wikipedia.org/wiki/Battle_of_Tali-Ihantala",
        "year": 1944,
        "place": "Karelian Isthmus",
        "country": "Finland",
        "war": "World War II",
        "coords": { "lat": 60.766667, "lng": 28.883333 }
    },
    {
        "name": "Battle of Vyborg Bay",
        "article": "https://en.wikipedia.org/wiki/Battle_of_the_Bay_of_Viipuri",
        "year": 1944,
        "place": "Vyborg Bay",
        "country": "Russia",
        "war": "World War II",
        "coords": { "lat": 60.583333, "lng": 28.5 }
    },
    {
        "name": "Battle of Vuosalmi",
        "article": "https://en.wikipedia.org/wiki/Battle_of_Vuosalmi",
        "year": 1944,
        "place": "Karelian Isthmus",
        "country": "Finland",
        "war": "World War II",
        "coords": { "lat": 60.718056, "lng": 29.575 }
    },
    {
        "name": "Battle of Nietjärvi",
        "article": "https://en.wikipedia.org/wiki/Battle_of_Nietjärvi",
        "year": 1944,
        "place": "Ladoga Karelia",
        "country": "Finland",
        "war": "World War II",
        "coords": { "lat": 61.615, "lng": 31.491 }
    },
    {
        "name": "Battle of Ilomantsi",
        "article": "https://en.wikipedia.org/wiki/Battle_of_Ilomantsi",
        "year": 1944,
        "place": "North Karelia",
        "country": "Finland",
        "war": "World War II",
        "coords": { "lat": 62.718, "lng": 31.526 }
    },
    {
        "name": "Battle of Tornio",
        "article": "https://en.wikipedia.org/wiki/Battle_of_Tornio",
        "year": 1944,
        "place": "Kemi-Tornio Area",
        "country": "Finland",
        "war": "World War II",
        "coords": { "lat": 65.736111, "lng": 24.563611 }
    },
    {
        "name": "Battle of Rovaniemi",
        "article": "https://en.wikipedia.org/wiki/Battle_of_Rovaniemi",
        "year": 1944,
        "place": "Rovaniemi",
        "country": "Finland",
        "war": "World War II",
        "coords": { "lat": 66.5, "lng": 25.733333 }
    },



    {
        "name": "Battle of Toulouse",
        "article": "https://en.wikipedia.org/wiki/Battle_of_Toulouse_(721)",
        "year": 721 ,
        "place": "Toulouse",
        "country": "France",
        "war": "Umayyad Invasion of Gaul",
        "coords": { "lat": 43.6044, "lng": 1.4439 }
    },
    {
        "name": "Battle of Crécy",
        "article": "https://en.wikipedia.org/wiki/Battle_of_Crécy",
        "year": 1346 ,
        "place": "Crécy-en-Ponthieu",
        "country": "France",
        "war": "Hundred Years' War",
        "coords": { "lat": 50.257, "lng": 1.904 }
    },
    {
        "name": "Battle of Poitiers",
        "article": "https://en.wikipedia.org/wiki/Battle_of_Poitiers",
        "year": 1356 ,
        "place": "Poitiers",
        "country": "France",
        "war": "Hundred Years' War",
        "coords": { "lat": 46.53, "lng": 0.4 }
    },
    {
        "name": "Battle of Auray",
        "article": "https://en.wikipedia.org/wiki/Battle_of_Auray",
        "year": 1364 ,
        "place": "Auray",
        "country": "France",
        "war": "War of the Breton Succession",
        "coords": { "lat": 47.6686, "lng": -2.9814 }
    },
    {
        "name": "Battle of Agincourt",
        "article": "https://en.wikipedia.org/wiki/Battle_of_Agincourt",
        "year": 1415 ,
        "place": "Azincourt",
        "country": "France",
        "war": "Hundred Years' War",
        "coords": { "lat": 50.463611, "lng": 2.141667 }
    },
    {
        "name": "Battle of Cravant",
        "article": "https://en.wikipedia.org/wiki/Battle_of_Cravant",
        "year": 1423 ,
        "place": "near Cravant",
        "country": "France",
        "war": "Hundred Years' War",
        "coords": { "lat": 47.6839, "lng": 3.6917 }
    },
    {
        "name": "Battle of Orléans",
        "article": "https://en.wikipedia.org/wiki/Siege_of_Orléans",
        "year": 1429 ,
        "place": "Orléans",
        "country": "France",
        "war": "Hundred Years' War",
        "coords": { "lat": 47.9025, "lng": 1.9089 }
    },
    {
        "name": "Battle of Patay",
        "article": "https://en.wikipedia.org/wiki/Battle_of_Patay",
        "year": 1429 ,
        "place": "near Patay",
        "country": "France",
        "war": "Hundred Years' War",
        "coords": { "lat": 48.0483, "lng": 1.6958 }
    },
    {
        "name": "Battle of Formigny",
        "article": "https://en.wikipedia.org/wiki/Battle_of_Formigny",
        "year": 1450 ,
        "place": "Formigny",
        "country": "France",
        "war": "Hundred Years' War",
        "coords": { "lat": 49.333333, "lng": -0.9 }
    },
    {
        "name": "Battle of Castillon",
        "article": "https://en.wikipedia.org/wiki/Battle_of_Castillon",
        "year": 1453 ,
        "place": "Castillon-la-Bataille",
        "country": "France",
        "war": "Hundred Years' War",
        "coords": { "lat": 44.855556, "lng": -0.040556 }
    },
    {
        "name": "Battle of Dreux",
        "article": "https://en.wikipedia.org/wiki/Battle_of_Dreux",
        "year": 1562,
        "place": "Dreux",
        "country": "France",
        "war": "French Wars of Religion",
        "coords": { "lat": 48.7372, "lng": 1.3664 }
    },
    {
        "name": "Battle of Saint-Denis",
        "article": "https://en.wikipedia.org/wiki/Battle_of_Saint-Denis_(1567)",
        "year": 1567 ,
        "place": "Saint-Denis",
        "country": "France",
        "war": "French Wars of Religion",
        "coords": { "lat": 50.4833, "lng": 4.0167 }
    },
    {
        "name": "Battle of Jarnac",
        "article": "https://en.wikipedia.org/wiki/Battle_of_Jarnac",
        "year": 1569 ,
        "place": "Bassac",
        "country": "France",
        "war": "French Wars of Religion",
        "coords": { "lat": 45.6642, "lng": -0.1056 }
    },
    {
        "name": "Battle of La Roche-l'Abeille",
        "article": "https://en.wikipedia.org/wiki/Battle_of_La_Roche-l%27Abeille",
        "year": 1569,
        "place": "La roche-l'abeille",
        "country": "France",
        "war": "French Wars of Religion",
        "coords": { "lat": 45.5969, "lng": 1.2422 }
    },
    {
        "name": "Battle of moncontour",
        "article": "https://en.wikipedia.org/wiki/Battle_of_Moncontour",
        "year": 1569 ,
        "place": "Moncontour",
        "country": "France",
        "war": "French Wars of Religion",
        "coords": { "lat": 46.8825, "lng": -0.0158 }
    },
    {
        "name": "Battle of Coutras",
        "article": "https://en.wikipedia.org/wiki/Battle_of_Coutras",
        "year": 1587 ,
        "place": "Coutras (Gironde)",
        "country": "France",
        "war": "French Wars of Religion",
        "coords": { "lat": 45.0417, "lng": -0.1272 }
    },
    {
        "name": "Battle of Arques",
        "article": "https://en.wikipedia.org/wiki/Battle_of_Arques",
        "year": 1589 ,
        "place": "Arques-la-Bataille",
        "country": "France",
        "war": "French Wars of Religion",
        "coords": { "lat": 49.8817, "lng": 1.1269 }
    },
    {
        "name": "Battle of Ivry",
        "article": "https://en.wikipedia.org/wiki/Battle_of_Ivry",
        "year": 1590 ,
        "place": "Ivry-la-Bataille",
        "country": "France",
        "war": "French Wars of Religion",
        "coords": { "lat": 48.8844, "lng": 1.4617 }
    },
    {
        "name": "Battle of Fontaine-Française",
        "article": "https://en.wikipedia.org/wiki/Battle_of_Fontaine-Française",
        "year": 1595 ,
        "place": "Fontaine-Française",
        "country": "France",
        "war": "French Wars of Religion",
        "coords": { "lat": 47.5261, "lng": 5.3706 }
    },
    {
        "name": "Battle of La Marfée",
        "article": "https://en.wikipedia.org/wiki/Battle_of_La Marfée",
        "year": 1641 ,
        "place": "La Marfée",
        "country": "France",
        "war": "Franco-Spanish War",
        "coords": { "lat": 49.7025, "lng": 4.9411 }
    },
    {
        "name": "Battle of Honnecourt",
        "article": "https://en.wikipedia.org/wiki/Battle_of_Honnecourt",
        "year": 1642 ,
        "place": "Honnecourt-sur-Escaut",
        "country": "France",
        "war": "Franco-Spanish War",
        "coords": { "lat": 50.0375, "lng": 3.1964 }
    },
    {
        "name": "Battle of Rocroi",
        "article": "https://en.wikipedia.org/wiki/Battle_of_Rocroi",
        "year": 1643 ,
        "place": "Rocroi",
        "country": "France",
        "war": "Franco-Spanish War",
        "coords": { "lat": 49.919444, "lng": 4.527778 }
    },
    {
        "name": "Battle of Lens",
        "article": "https://en.wikipedia.org/wiki/Battle_of_Lens",
        "year": 1648 ,
        "place": "Between Grenay and Liévin",
        "country": "France",
        "war": "Franco-Spanish War",
        "coords": { "lat": 50.416667, "lng": 2.833333 }
    },
    {
        "name": "Battle of Bordeaux",
        "article": "https://en.wikipedia.org/wiki/Battle_of_Bordeaux_(1653)",
        "year": 1653 ,
        "place": "Gironde estuary near Montagne",
        "country": "France",
        "war": "Franco-Spanish War",
        "coords": { "lat": 45.266944, "lng": -0.710833 }
    },
    {
        "name": "Battle of Arras",
        "article": "https://en.wikipedia.org/wiki/Battle_of_Arras_(1654)",
        "year": 1654 ,
        "place": "Arras",
        "country": "France",
        "war": "Franco-Spanish War",
        "coords": { "lat": 50.289722, "lng": 2.780833 }
    },
    {
        "name": "Battle of Valenciennes",
        "article": "https://en.wikipedia.org/wiki/Battle_of_Valenciennes_(1656)",
        "year": 1656 ,
        "place": "Valenciennes",
        "country": "France",
        "war": "Franco-Spanish War",
        "coords": { "lat": 50.3581, "lng": 3.5233 }
    },
    {
        "name": "Battle of the Dunes",
        "article": "https://en.wikipedia.org/wiki/Battle_of_the_Dunes_(1658)",
        "year": 1658 ,
        "place": "near Dunkirk",
        "country": "France",
        "war": "Franco-Spanish War",
        "coords": { "lat": 51.0383, "lng": 2.3775 }
    },
    {
        "name": "Battles of Barfleur and La Hougue",
        "article": "https://en.wikipedia.org/wiki/Battles_of_Barfleur_and_La_Hogue",
        "year": 1692,
        "place": "off Cotentin Peninsula",
        "country": "France",
        "war": "Nine Years' War",
        "coords": { "lat": 49.6711, "lng": -1.2633 }
    },
    {
        "name": "Battle of Camaret",
        "article": "https://en.wikipedia.org/wiki/Battle_of_Camaret",
        "year": 1694 ,
        "place": "Brest",
        "country": "France",
        "war": "Nine Years' War",
        "coords": { "lat": 48.2767, "lng": -4.5956 }
    },
    {
        "name": "Battle of Malplaquet",
        "article": "https://en.wikipedia.org/wiki/Battle_of_Malplaquet",
        "year": 1709 ,
        "place": "Malplaquet",
        "country": "France",
        "war": "War of the Spanish Succession",
        "coords": { "lat": 50.336111, "lng": 3.876389 }
    },
    {
        "name": "Battle of Denain",
        "article": "https://en.wikipedia.org/wiki/Battle_of_Denain",
        "year": 1712 ,
        "place": "Denain",
        "country": "France",
        "war": "War of the Spanish Succession",
        "coords": { "lat": 50.333333, "lng": 3.4 }
    },
    {
        "name": "Battle of Valmy",
        "article": "https://en.wikipedia.org/wiki/Battle_of_Valmy",
        "year": 1792 ,
        "place": "Between Sainte-Menehould and Valmy",
        "country": "France",
        "war": "War of the First Coalition",
        "coords": { "lat": 49.079444, "lng": 4.765556 }
    },
    {
        "name": "Battle of Hondschoote",
        "article": "https://en.wikipedia.org/wiki/Battle_of_Hondschoote_(1793)",
        "year": 1793 ,
        "place": "Hondschoote",
        "country": "France",
        "war": "French Revolutionary Wars",
        "coords": { "lat": 50.9803, "lng": 2.5861 }
    },
    {
        "name": "Battle of Wattignies",
        "article": "https://en.wikipedia.org/wiki/Battle_of_Wattignies",
        "year": 1793 ,
        "place": "Wattignies-la-Victoire",
        "country": "France",
        "war": "French Revolution",
        "coords": { "lat": 50.201389, "lng": 4.013333 }
    },
    {
        "name": "Battle of Trippstadt",
        "article": "https://en.wikipedia.org/wiki/Battle_of_Trippstadt",
        "year": 1794 ,
        "place": "Trippstadt",
        "country": "Germany",
        "war": "French Revolutionary Wars",
        "coords": { "lat": 49.359167, "lng": 7.774444}
    },
    {
        "name": "Battle of Montmirail",
        "article": "https://en.wikipedia.org/wiki/Battle_of_Montmirail",
        "year": 1814 ,
        "place": "Montmirail",
        "country": "France",
        "war": "War of the Sixth Coalition",
        "coords": { "lat": 48.8958, "lng": 3.4807 }
    },
    {
        "name": "Battle of Vauchamps",
        "article": "https://en.wikipedia.org/wiki/Battle_of_Vauchamps",
        "year": 1814 ,
        "place": "Vauchamps",
        "country": "France",
        "war": "War of the Sixth Coalition",
        "coords": { "lat": 48.8811, "lng": 3.6164 }
    },
    {
        "name": "Battle of Montereau",
        "article": "https://en.wikipedia.org/wiki/Battle_of_Montereau",
        "year": 1814 ,
        "place": "Montereau-Fault-Yonne",
        "country": "France",
        "war": "War of the Sixth Coalition",
        "coords": { "lat": 48.3853, "lng": 2.9508 }
    },
    {
        "name": "Battle of Craonne",
        "article": "https://en.wikipedia.org/wiki/Battle_of_Craonne",
        "year": 1814 ,
        "place": "Craonne",
        "country": "France",
        "war": "War of the Sixth Coalition",
        "coords": { "lat": 49.440833, "lng": 3.7875 }
    },
    {
        "name": "Battle of Reims",
        "article": "https://en.wikipedia.org/wiki/Battle_of_Reims_(1814)",
        "year": 1814 ,
        "place": "Reims",
        "country": "France",
        "war": "War of the Sixth Coalition",
        "coords": { "lat": 49.2628, "lng": 4.0347 }
    },
    {
        "name": "Battle of Toulouse",
        "article": "https://en.wikipedia.org/wiki/Battle_of_Toulouse_(1814)",
        "year": 1814 ,
        "place": "Toulouse",
        "country": "France",
        "war": "Peninsular War",
        "coords": { "lat": 43.6044, "lng": 1.4439 }
    },
    {
        "name": "Battle of Rocquencourt",
        "article": "https://en.wikipedia.org/wiki/Battle_of_Rocquencourt",
        "year": 1815 ,
        "place": "Rocquencourt–Le Chesnay",
        "country": "France",
        "war": "War of the Seventh Coalition",
        "coords": { "lat": 48.8211, "lng": 2.1311 }
    },
    {
        "name": "Battle of Wörth",
        "article": "https://en.wikipedia.org/wiki/Battle_of_Wörth",
        "year": 1870 ,
        "place": "Frœschwiller",
        "country": "France",
        "war": "Franco-Prussian War",
        "coords": { "lat": 48.938889, "lng": 7.733333 }
    },
    {
        "name": "Battle of Gravelotte",
        "article": "https://en.wikipedia.org/wiki/Battle_of_Gravelotte",
        "year": 1870 ,
        "place": "Gravelotte",
        "country": "France",
        "war": "Franco-Prussian War",
        "coords": { "lat": 49.15, "lng": 6.016667 }
    },
    {
        "name": "Battle of Sedan",
        "article": "https://en.wikipedia.org/wiki/Battle_of_Sedan_(1870)",
        "year": 1870 ,
        "place": "Sedan",
        "country": "France",
        "war": "Franco–Prussian War",
        "coords": { "lat": 49.7, "lng": 4.944444 }
    },
    {
        "name": "Battle of the Frontiers",
        "article": "https://en.wikipedia.org/wiki/Battle_of_the_Frontiers",
        "year": 1914 ,
        "place": "Lorraine",
        "country": "France",
        "war": "World War I",
        "coords": { "lat": 46, "lng": 2 }
    },
    {
        "name": "First Battle of the Marne",
        "article": "https://en.wikipedia.org/wiki/First_Battle_of_the_Marne",
        "year": 1914 ,
        "place": "Marne River",
        "country": "France",
        "war": "World War I",
        "coords": { "lat": 49.016667, "lng": 3.383333 }
    },
    {
        "name": "First Battle of the Aisne",
        "article": "https://en.wikipedia.org/wiki/First_Battle_of_the_Aisne",
        "year": 1914 ,
        "place": "Aisne River",
        "country": "France",
        "war": "World War I",
        "coords": { "lat": 49.433333, "lng": 3.666667 }
    },
    {
        "name": "Battle of La Bassée",
        "article": "https://en.wikipedia.org/wiki/Battle_of_La_Bassée",
        "year": 1914 ,
        "place": "La Bassée",
        "country": "France",
        "war": "World War I",
        "coords": { "lat": 50.534167, "lng": 2.808056 }
    },
    {
        "name": "First Battle of Champagne",
        "article": "https://en.wikipedia.org/wiki/First_Battle_of_Champagne",
        "year": 1914 ,
        "place": "Champagne-Ardenne",
        "country": "France",
        "war": "World War I",
        "coords": { "lat": 49.184444, "lng": 4.544167 }
    },
    {
        "name": "First Battle of Artois",
        "article": "https://en.wikipedia.org/wiki/First_Battle_of_Artois",
        "year": 1915 ,
        "place": "Artois",
        "country": "France",
        "war": "World War I",
        "coords": { "lat": 50.585, "lng": 2.7775 }
    },
    {
        "name": "Battle of Neuve Chapelle",
        "article": "https://en.wikipedia.org/wiki/Battle_of_Neuve_Chapelle",
        "year": 1915 ,
        "place": "Artois",
        "country": "France",
        "war": "World War I",
        "coords": { "lat": 50.585, "lng": 2.7775 }
    },
    {
        "name": "Second Battle of Artois",
        "article": "https://en.wikipedia.org/wiki/Second_Battle_of_Artois",
        "year": 1915 ,
        "place": "Artois",
        "country": "France",
        "war": "World War I",
        "coords": { "lat": 50.585, "lng": 2.7775 }
    },
    {
        "name": "Second Battle of Champagne",
        "article": "https://en.wikipedia.org/wiki/Second_Battle_of_Champagne",
        "year": 1915 ,
        "place": "Champagne",
        "country": "France",
        "war": "World War I",
        "coords": { "lat": 49.184444, "lng": 4.544167 }
    },
    {
        "name": "Battle of Loos",
        "article": "https://en.wikipedia.org/wiki/Battle_of_Loos",
        "year": 1915 ,
        "place": "Loos",
        "country": "France",
        "war": "World War I",
        "coords": { "lat": 50.458333, "lng": 2.794167 }
    },
    {
        "name": "Third Battle of Artois",
        "article": "https://en.wikipedia.org/wiki/Third_Battle_of_Artois",
        "year": 1915 ,
        "place": "Artois",
        "country": "France",
        "war": "World War I",
        "coords": { "lat": 50.585, "lng": 2.7775 }
    },
    {
        "name": "Battle of Verdun",
        "article": "https://en.wikipedia.org/wiki/Battle_of_Verdun",
        "year": 1916 ,
        "place": "Verdun",
        "country": "France",
        "war": "World War I",
        "coords": { "lat": 49.162, "lng": 5.3876 }
    },
    {
        "name": "Battle of Delville Wood",
        "article": "https://en.wikipedia.org/wiki/Battle_of_Delville_Wood",
        "year": 1916 ,
        "place": "Delville Wood",
        "country": "France",
        "war": "World War I",
        "coords": { "lat": 50.0278, "lng": 2.8099 }
    },
    {
        "name": "Battle of the Somme",
        "article": "https://en.wikipedia.org/wiki/Battle_of_the_Somme",
        "year": 1916 ,
        "place": "Somme River",
        "country": "France",
        "war": "World War I",
        "coords": { "lat": 50.015556, "lng": 2.6975 }
    },
    {
        "name": "Battle of Arras",
        "article": "https://en.wikipedia.org/wiki/Battle_of_Arras_(1917)",
        "year": 1917 ,
        "place": "Arras",
        "country": "France",
        "war": "World War I",
        "coords": { "lat": 50.289722, "lng": 2.780833 }
    },
    {
        "name": "Battle of Vimy Ridge",
        "article": "https://en.wikipedia.org/wiki/Battle_of_Vimy_Ridge",
        "year": 1917 ,
        "place": "Vimy",
        "country": "France",
        "war": "World War I",
        "coords": { "lat": 50.379, "lng": 2.774 }
    },
    {
        "name": "Second Battle of the Aisne",
        "article": "https://en.wikipedia.org/wiki/Second_Battle_of_the_Aisne",
        "year": 1917 ,
        "place": "Between Soissons and Reims",
        "country": "France",
        "war": "World War I",
        "coords": { "lat": 49.4, "lng": 3.6 }
    },
    {
        "name": "Battle of Messines",
        "article": "https://en.wikipedia.org/wiki/Battle_of_Messines_(1917)",
        "year": 1917 ,
        "place": "Messen",
        "country": "Belgium",
        "war": "World War I",
        "coords": { "lat": 50.7625, "lng": 2.895278 }
    },

    {
        "name": "Battle of Cambrai",
        "article": "https://en.wikipedia.org/wiki/Battle_of_Cambrai_(1917)",
        "year": 1917 ,
        "place": "Cambrai",
        "country": "France",
        "war": "World War I",
        "coords": { "lat": 50.176667, "lng": 3.235556 }
    },
    {
        "name": "Battle of Dunkirk",
        "article": "https://en.wikipedia.org/wiki/Battle_of_Dunkirk",
        "year": 1940 ,
        "place": "Dunkirk",
        "country": "France",
        "war": "World War II",
        "coords": { "lat": 51.0343, "lng": 2.37682 }
    },
    {
        "name": "Normany Landings (D-Day)",
        "article": "https://en.wikipedia.org/wiki/Normandy_landings",
        "year": 1944 ,
        "place": "Normandy",
        "country": "France",
        "war": "World War II",
        "coords": { "lat": 49.333333, "lng": -0.566667 }
    },
    {
        "name": "Battle of Normandy (Operation Overlord)",
        "article": "https://en.wikipedia.org/wiki/D-Day",
        "year": 1944 ,
        "place": "Normandy",
        "country": "France",
        "war": "World War II",
        "coords": { "lat": 49.418056, "lng": -1.176389 }
    },




    {
        "name": "Battle of Saalfeld",
        "article": "https://en.wikipedia.org/wiki/Battle_of_Saalfeld",
        "year": 1806,
        "place": "Saalfeld",
        "country": "Germany",
        "war": "War of the Fourth Coalition",
        "coords": { "lat": 50.65, "lng": 11.3669 }
    },
    {
        "name": "Battle of Auerstedt",
        "article": "https://en.wikipedia.org/wiki/Battle_of_Jena–Auerstedt",
        "year": 1806,
        "place": "Auerstedt",
        "country": "Germany",
        "war": "War of the Fourth Coalition",
        "coords": { "lat": 50.927222, "lng": 11.586111 }
    },
    {
        "name": "Battle of Hemmingstedt",
        "article": "https://en.wikipedia.org/wiki/Battle_of_Hemmingstedt",
        "year": 1500,
        "place": "Hemmingstedt",
        "country": "Germany",
        "war": "",
        "coords": { "lat": 54.147222, "lng": 9.071944 }
    },
    {
        "name": "Battle of Leipzig",
        "article": "https://en.wikipedia.org/wiki/Battle_of_Leipzig",
        "year": 1813,
        "place": "Leipzig",
        "country": "Germany",
        "war": "War of the Sixth Coalition",
        "coords": { "lat": 51.333333, "lng": 12.383333 }
    },
    {
        "name": "Battle of Worringen",
        "article": "https://en.wikipedia.org/wiki/Battle_of_Worringen",
        "year": 1288,
        "place": "Cologne",
        "country": "Germany",
        "war": "War of the Limburg Succession",
        "coords": { "lat": 51.0425, "lng": 6.887778 }
    },
    {
        "name": "Battle of Hohenlinden",
        "article": "https://en.wikipedia.org/wiki/Battle_of_Hohenlinden",
        "year": 1800,
        "place": "Hohenlinden",
        "country": "Germany",
        "war": "War of the Second Coalition",
        "coords": { "lat": 48.159722, "lng": 11.998056 }
    },
    {
        "name": "Battle of Haslach-Jungingen",
        "article": "https://en.wikipedia.org/wiki/Battle_of_Haslach-Jungingen",
        "year": 1805,
        "place": "Ulm-Jungingen",
        "country": "Germany",
        "war": "War of the Third Coalition",
        "coords": { "lat": 48.4, "lng": 9.98 }
    },
    {
        "name": "Battle of Elchingen",
        "article": "https://en.wikipedia.org/wiki/Battle_of_Elchingen",
        "year": 1805,
        "place": "Elchingen",
        "country": "Germany",
        "war": "War of the Third Coalition",
        "coords": { "lat": 48.4517, "lng": 10.0978 }
    },
    {
        "name": "Battle of Ulm",
        "article": "https://en.wikipedia.org/wiki/Battle_of_Ulm",
        "year": 1805,
        "place": "Ulm",
        "country": "Germany",
        "war": "Ulm Campaign",
        "coords": { "lat": 48.3833, "lng": 9.9833 }
    },
    {
        "name": "Battle of Abensberg",
        "article": "https://en.wikipedia.org/wiki/Battle_of_Abensberg",
        "year": 1809,
        "place": "Abensberg",
        "country": "Germany",
        "war": "War of the Fifth Coalition",
        "coords": { "lat": 48.8, "lng": 11.85 }
    },
    {
        "name": "Battle of Landshut",
        "article": "https://en.wikipedia.org/wiki/Battle_of_Landshut_(1809)",
        "year": 1809,
        "place": "Landshut",
        "country": "Germany",
        "war": "War of the Fifth Coalition",
        "coords": { "lat": 48.539722, "lng": 12.150833 }
    },
    {
        "name": "Battle of Eckmühl",
        "article": "https://en.wikipedia.org/wiki/Battle_of_Eckm%C3%BChl",
        "year": 1809,
        "place": "Eckmühl",
        "country": "Germany",
        "war": "War of the Fifth Coalition",
        "coords": { "lat": 48.8438, "lng": 12.1823 }
    },
    {
        "name": "Battle of Ratisbon",
        "article": "https://en.wikipedia.org/wiki/Battle_of_Ratisbon",
        "year": 1809,
        "place": "Regensburg",
        "country": "Germany",
        "war": "War of the Fifth Coalition",
        "coords": { "lat": 49.016667, "lng": 12.083333 }
    },
    {
        "name": "Battle of Teugen-Hausen",
        "article": "https://en.wikipedia.org/wiki/Battle_of_Teugen-Hausen",
        "year": 1809,
        "place": "Teugn",
        "country": "Germany",
        "war": "War of the Fifth Coalition",
        "coords": { "lat": 48.9, "lng": 12.016667 }
    },
    {
        "name": "Battle of Lützen",
        "article": "https://en.wikipedia.org/wiki/Battle_of_Lützen_(1813)",
        "year": 1813,
        "place": "Lützen",
        "country": "Germany",
        "war": "War of the Sixth Coalition",
        "coords": { "lat": 51.2167, "lng": 12.1833 }
    },
    {
        "name": "Battle of Dresden",
        "article": "https://en.wikipedia.org/wiki/Battle_of_Dresden",
        "year": 1813,
        "place": "Dresden",
        "country": "Germany",
        "war": "War of the Sixth Coalition",
        "coords": { "lat": 51.033333, "lng": 13.733333 }
    },
    {
        "name": "Battle of Hanau",
        "article": "https://en.wikipedia.org/wiki/Battle_of_Hanau",
        "year": 1813,
        "place": "Hanau",
        "country": "Germany",
        "war": "War of the Sixth Coalition",
        "coords": { "lat": 50.1331, "lng": 8.9169 }
    },
    {
        "name": "Battle of Aachen",
        "article": "https://en.wikipedia.org/wiki/Battle_of_Aachen",
        "year": 1944,
        "place": "Aachen",
        "country": "Germany",
        "war": "World War II",
        "coords": { "lat": 50.766667, "lng": 6.1 }
    },
    {
        "name": "Battle of Berlin",
        "article": "https://en.wikipedia.org/wiki/Battle_of_Berlin",
        "year": 1945,
        "place": "Berlin",
        "country": "Germany",
        "war": "World War II",
        "coords": { "lat": 52.516667, "lng": 13.383333 }
    },



    {
        "name": "Battle of Matapan",
        "article": "https://en.wikipedia.org/wiki/Battle_of_Matapan",
        "year": 1717,
        "place": "off Cape Matapan",
        "country": "Greece",
        "war": "Seventh Ottoman–Venetian War",
        "coords": { "lat": 36.385, "lng": 22.482778 }
    },
    {
        "name": "Battle of Vromopigada",
        "article": "https://en.wikipedia.org/wiki/Battle_of_Vromopigada",
        "year": 1770,
        "place": "Vromopigada",
        "country": "Greece",
        "war": "Ottoman invasion of Mani",
        "coords": { "lat": 36.666667, "lng": 22.5 }
    },
    {
        "name": "Battle of Alamana",
        "article": "https://en.wikipedia.org/wiki/Battle_of_Alamana",
        "year": 1821,
        "place": "Thermopylae",
        "country": "Greece",
        "war": "Greek War of Independence",
        "coords": { "lat": 38.805278, "lng": 22.562778 }
    },
    {
        "name": "Battle of Gravia Inn",
        "article": "https://en.wikipedia.org/wiki/Battle_of_Gravia_Inn",
        "year": 1821,
        "place": "Gravia",
        "country": "Greece",
        "war": "Greek War of Independence",
        "coords": { "lat": 38.6711, "lng": 22.4289 }
    },
    {
        "name": "Battle of Doliana",
        "article": "https://en.wikipedia.org/wiki/Battle_of_Doliana",
        "year": 1821,
        "place": "Ano Doliana",
        "country": "Greece",
        "war": "Greek War of Independence",
        "coords": { "lat": 37.387643, "lng": 22.498677 }
    },
    {
        "name": "Battle of Dragashani",
        "article": "https://en.wikipedia.org/wiki/Battle_of_Dragashani",
        "year": 1821,
        "place": "Drăgăşani",
        "country": "Romania",
        "war": "Greek War of Independence",
        "coords": { "lat": 44.6611, "lng": 24.2606 }
    },
    {
        "name": "Battle of Valtetsi",
        "article": "https://en.wikipedia.org/wiki/Battle_of_Valtetsi",
        "year": 1821,
        "place": "Valtetsi",
        "country": "Greece",
        "war": "Greek War of Independence",
        "coords": { "lat": 37.4775, "lng": 22.284722 }
    },
    {
        "name": "Battle of Peta",
        "article": "https://en.wikipedia.org/wiki/Battle_of_Peta",
        "year": 1822,
        "place": "Peta",
        "country": "Greece",
        "war": "Greek War of Independence",
        "coords": { "lat": 39.16728, "lng": 21.030018 }
    },
    {
        "name": "Expedition of Dramali",
        "article": "https://en.wikipedia.org/wiki/Expedition_of_Dramali",
        "year": 1822,
        "place": "Dervenakia",
        "country": "Greece",
        "war": "Greek War of Independence",
        "coords": { "lat": 37.789, "lng": 22.725 }
    },
    {
        "name": "First siege of Missolonghi",
        "article": "https://en.wikipedia.org/wiki/First_siege_of_Missolonghi",
        "year": 1822,
        "place": "Missolonghi",
        "country": "Greece",
        "war": "Greek War of Independence",
        "coords": { "lat": 38.368, "lng": 21.428 }
    },
    {
        "name": "Second siege of Missolonghi",
        "article": "https://en.wikipedia.org/wiki/First_siege_of_Missolonghi",
        "year": 1823,
        "place": "Missolonghi",
        "country": "Greece",
        "war": "Greek War of Independence",
        "coords": { "lat": 38.368, "lng": 21.428 }
    },
    {
        "name": "Third siege of Missolonghi",
        "article": "https://en.wikipedia.org/wiki/First_siege_of_Missolonghi",
        "year": 1825,
        "place": "Missolonghi",
        "country": "Greece",
        "war": "Greek War of Independence",
        "coords": { "lat": 38.368, "lng": 21.428 }
    },
    {
        "name": "Battle of Karpenisi",
        "article": "https://en.wikipedia.org/wiki/Battle_of_Karpenisi",
        "year": 1823,
        "place": "Karpenisi",
        "country": "Greece",
        "war": "Greek War of Independence",
        "coords": { "lat": 39.056, "lng": 21.5723 }
    },
    {
        "name": "Battle of Lerna Mills",
        "article": "https://en.wikipedia.org/wiki/Battle_of_the_Lerna_Mills",
        "year": 1825,
        "place": "Lerna",
        "country": "Greece",
        "war": "Greek War of Independence",
        "coords": { "lat": 37.55, "lng": 22.716667 }
    },
    {
        "name": "Battle of Maniaki",
        "article": "https://en.wikipedia.org/wiki/Battle_of_Maniaki",
        "year": 1825,
        "place": "Maniaki",
        "country": "Greece",
        "war": "Greek War of Independence",
        "coords": { "lat": 37.0764, "lng": 21.7725 }
    },
    {
        "name": "Battle of Sphacteria",
        "article": "https://en.wikipedia.org/wiki/Battle_of_Sphacteria_(1825)",
        "year": 1,
        "place": "Sphacteria",
        "country": "Greece",
        "war": "Greek War of Independence",
        "coords": { "lat": 36.9301, "lng": 21.6657 }
    },
    {
        "name": "Battle of Arachova",
        "article": "https://en.wikipedia.org/wiki/Battle_of_Arachova",
        "year": 1826,
        "place": "Arachova",
        "country": "Greece",
        "war": "Greek War of Independence",
        "coords": { "lat": 38.4833, "lng": 22.5833 }
    },
    {
        "name": "Ottoman–Egyptian invasion of Mani",
        "article": "https://en.wikipedia.org/wiki/Ottoman–Egyptian_invasion_of_Mani",
        "year": 1826,
        "place": "Mani",
        "country": "Greece",
        "war": "Greek War of Independence",
        "coords": { "lat": 36.559, "lng": 22.4303 }
    },
    {
        "name": "Battle of Kamatero",
        "article": "https://en.wikipedia.org/wiki/Battle_of_Kamatero",
        "year": 1827,
        "place": "Kamatero",
        "country": "Greece",
        "war": "Greek War of Independence",
        "coords": { "lat": 38.059717, "lng": 23.71195 }
    },
    {
        "name": "Battle of Navarino",
        "article": "https://en.wikipedia.org/wiki/Battle_of_Navarino",
        "year": 1827,
        "place": "off Navarino",
        "country": "Greece",
        "war": "Greek War of Independence",
        "coords": { "lat": 36.935833, "lng": 21.687778 }
    },